stop_id,stop_name,stop_lat,stop_lon,location_type
33005,Bojkovice město,49.03533722222222,17.811043611111113,0
33012,Blatec,49.525464444444445,17.24613916666667,0
33014,Albrechtice u Českého Těšína,49.79275972222222,18.52433861111111,0
33015,Adamov,49.29541527777778,16.66319833333333,0
33022,Nemilany,49.5587325,17.244292222222224,0
33024,Baška,49.651063888888885,18.369131944444444,0
33025,Adamov zastávka,49.301993055555556,16.64810611111111,0
33032,Olomouc-Nové Sady,49.570875,17.260583333333333,0
33035,Babice nad Svitavou,49.27654,16.67273527777778,0
33042,Bludov,49.92777361111111,16.938769166666667,0
33045,Bedihošť,49.441676666666666,17.166581388888886,0
33052,Bohutín,49.95167694444445,16.876021666666666,0
33054,Studénka město,49.716276944444445,18.065136111111112,0
33055,Čelčice,49.41185,17.191383055555555,0
33062,Bludov lázně,49.940855,16.902754166666664,0
33064,Bílovec,49.753319166666664,18.013968055555555,0
33065,Doloplazy,49.352741944444446,17.161682222222222,0
33072,Bohdíkov,50.02625611111111,16.901385555555553,0
33074,Velké Albrechtice,49.74859611111111,18.03091361111111,0
33075,Pivín,49.38748972222222,17.18875,0
33082,Komňátka,50.00949166666667,16.897234166666667,0
33084,Budišov nad Budišovkou,49.795758888888884,17.61405277777778,0
33085,Bílovice nad Svitavou,49.242515833333336,16.67339861111111,0
33092,Bohuňovice,49.663025,17.281105277777776,0
33094,Svatoňovice,49.79933222222222,17.667952500000002,0
33095,Blansko,49.352021111111114,16.647776666666665,0
33102,Hlušovice,49.63909666666667,17.281195,0
33104,Bystřice (Bystrzyca),49.636021944444444,18.717486666666666,0
33105,Dolní Lhota,49.387546944444445,16.6337825,0
33112,Branná,50.14691805555555,17.015046388888887,0
33114,Hrádek (Gródek),49.613748333333334,18.739469166666666,0
33115,Blansko město,49.361155277777776,16.639301944444444,0
33122,Brantice,50.05204833333333,17.61162611111111,0
33124,Vendryně (Wędrynia),49.65662805555555,18.695813611111113,0
33125,Blažovice,49.16368527777777,16.79825055555556,0
33132,Zátor,50.03937027777778,17.596263055555553,0
33135,Křenovice dolní nádraží,49.14420888888889,16.834138055555556,0
33142,Brodek u Přerova,49.48204611111111,17.337388333333333,0
33145,Bohuslavice nad Vláří,49.096204166666666,17.926159444444444,0
33152,Rokytnice u Přerova,49.46065638888889,17.374090555555554,0
33155,Divnice,49.09767666666667,17.914587777777776,0
33162,Bruntál,49.99357888888889,17.47449,0
33165,Popov,49.08068916666667,17.966962777777777,0
33175,Bohuslavice u Kyjova,49.054897777777775,17.119261944444446,0
33182,Kožušany,49.54031222222222,17.250006666666668,0
33185,Bojkovice,49.0361125,17.795358611111112,0
33195,Pitín zastávka,49.03745611111111,17.84315388888889,0
33205,Boskovice,49.49116888888889,16.651301666666665,0
33215,Boří les,48.73793777777778,16.867159444444447,0
33225,Božice u Znojma,48.82327805555556,16.28776138888889,0
33232,Břidličná,49.913311388888886,17.382608611111113,0
33234,Český Těšín (Czeski Cieszyn),49.74357638888889,18.622413055555555,0
33236,Branky na Moravě,49.45936972222223,17.906097222222222,0
33242,Břidličná zastávka,49.91242611111111,17.369599722222222,0
33244,Chotěbuz (Kocobędz),49.78161194444444,18.598074722222222,0
33246,Police u Valašského Meziříčí,49.450585000000004,17.868314166666668,0
33252,Raškov,50.040261666666666,16.912605555555555,0
33254,Ropice zastávka (Ropica przystanek),49.716755,18.6267125,0
33255,Bransouze,49.30569333333333,15.74933972222222,0
33264,Děhylov,49.88055861111111,18.17102138888889,0
33265,Přímělkov,49.34352416666667,15.74145861111111,0
33274,Dětmarovice,49.90019111111111,18.466406666666664,0
33275,Dolní Smrčné,49.322947777777784,15.747423333333332,0
33284,Dobrá u Frýdku-Místku,49.67084388888889,18.41442972222222,0
33285,Číchov,49.28195916666667,15.7634975,0
33292,Čelechovice na Hané,49.513536944444446,17.096906666666666,0
33294,Dobratice-Vojkovice,49.66971083333333,18.472847499999997,0
33295,Brno hl.n.,49.190933611111106,16.61335805555556,0
33302,Kaple,49.53114111111111,17.104666666666667,0
33304,Dolní Benešov,49.92315222222222,18.11900277777778,0
33305,Brno-Horní Heršpice,49.16749861111111,16.606886666666668,0
33312,Červenka,49.72404916666667,17.09110472222222,0
33314,Kozmice,49.91054277777778,18.153759722222222,0
33315,Brno-Královo Pole,49.230489722222224,16.59716472222222,0
33322,Dětřichov nad Bystřicí,49.83844888888889,17.394923055555555,0
33324,Frenštát pod Radhoštěm město,49.54449222222222,18.208428055555554,0
33325,Brno-Řečkovice,49.2505625,16.590310833333334,0
33332,Lomnice u Rýmařova,49.87304861111111,17.419250555555557,0
33334,Frenštát pod Radhoštěm,49.54193055555555,18.22418472222222,0
33335,Brno-Lesná,49.22053888888889,16.627034444444444,0
33344,Frýdek-Místek,49.67774222222222,18.353696388888892,0
33354,Frýdlant nad Ostravicí,49.58884055555556,18.354703888888892,0
33364,Čeladná,49.552974166666665,18.33435361111111,0
33365,Brno-Slatina,49.169513333333335,16.68204111111111,0
33374,Frýdlant nad Ostravicí-Nová Dědina,49.57012166666667,18.360624166666668,0
33384,Frýdlant nad Ostravicí zastávka,49.58512027777778,18.36054388888889,0
33385,Brno-Černovice,49.18859833333333,16.630775555555555,0
33394,Pržno,49.617065277777776,18.3618925,0
33395,Brno-Židenice,49.201929722222225,16.635224444444443,0
33404,Fulnek,49.71354138888889,17.91278694444444,0
33405,Brumov,49.094285,18.036758333333335,0
33412,Halenkov zastávka,49.31590027777777,18.14181027777778,0
33414,Stachovice,49.69429333333333,17.93183138888889,0
33415,Návojná,49.10104333333334,18.044419722222223,0
33422,Domašov nad Bystřicí,49.74030305555556,17.44474027777778,0
33424,Háj ve Slezsku,49.901266388888885,18.092977777777776,0
33425,Břeclav,48.753769444444444,16.893024999999998,0
33432,Hrubá Voda-Smilov,49.69100666666667,17.443291944444443,0
33434,Jilešovice,49.896969722222224,18.142107222222222,0
33435,Brumov střed,49.08506305555556,18.025638055555554,0
33437,Březová nad Svitavou,49.63350138888889,16.520171388888887,0
33442,Jívová,49.71018111111111,17.442132222222224,0
33444,Lhota u Opavy,49.907204444444446,18.04696388888889,0
33447,Březová nad Svitavou-Dlouhá,49.65544388888889,16.508453888888887,0
33452,Drahanovice,49.58252,17.079915,0
33454,Havířov,49.79161444444444,18.41197722222222,0
33457,Hradec nad Svitavou,49.70044666666667,16.484731111111113,0
33461,Havířov střed,49.78838388888889,18.43942861111111,0
33462,Slatinice,49.567258888888894,17.108836111111113,0
33464,Šenov,49.77662194444444,18.370841388888888,0
33465,Jankovice,49.356091944444444,17.622968888888888,0
33467,Moravská Chrastová,49.623330277777775,16.52446861111111,0
33472,Drahotuše,49.55240083333333,17.68232777777778,0
33474,Havířov-Suchá,49.79072083333333,18.460119166666665,0
33475,Bzenec-Olšovec,48.97049888888889,17.29426138888889,0
33477,Svitavy-Lány,49.73528638888889,16.483300555555555,0
33482,Grygov,49.533995,17.305285833333333,0
33484,Horní Suchá,49.792860555555556,18.487924444444445,0
33485,Břežany,48.87290333333333,16.36751611111111,0
33492,Halenkov,49.32235305555556,18.153943055555555,0
33494,Hladké Životice,49.67766722222222,17.984472222222223,0
33495,Pravice,48.848529722222224,16.370279166666666,0
33502,Huslenky,49.30309666666666,18.092201944444444,0
33504,Hlučín,49.90100805555556,18.19382,0
33505,Bučovice,49.14536666666667,16.999929722222223,0
33512,Huslenky zastávka,49.309392777777774,18.11960611111111,0
33514,Hnojník,49.67868305555555,18.5389775,0
33515,Marefy,49.1491875,16.97296722222222,0
33522,Nový Hrozenkov,49.34075,18.20411777777778,0
33524,Střítež u Českého Těšína,49.678871666666666,18.569286388888887,0
33525,Nevojice,49.13692611111111,17.048088611111112,0
33532,Nový Hrozenkov zastávka,49.334561666666666,18.177538055555555,0
33534,Horní Tošanovice,49.68116583333333,18.503625833333334,0
33535,Bylnice,49.06762277777778,18.014167222222223,0
33542,Hanušovice,50.071915555555556,16.929369166666667,0
33545,Svatý Štěpán,49.04606777777778,18.035252222222223,0
33552,Chrastice,50.14331,16.949545555555556,0
33554,Jakartovice,49.9173075,17.691489444444446,0
33555,Bystřice nad Pernštejnem,49.51323638888889,16.24829638888889,0
33562,Potůčník,50.08012472222222,16.963583055555556,0
33564,Svobodné Heřmanice,49.94325277777777,17.654144444444444,0
33565,Rovné-Divišov,49.54761138888889,16.17292638888889,0
33572,Vysoké Žibřidovice,50.11639027777778,16.937586111111113,0
33574,Hradec nad Moravicí,49.87751194444444,17.87596111111111,0
33575,Rozsochy,49.53740472222222,16.19506638888889,0
33582,Hanušovice zastávka,50.089215833333334,16.92011527777778,0
33584,Branka u Opavy,49.88919444444444,17.87799916666667,0
33585,Bystřice pod Hostýnem,49.39305611111111,17.665580277777778,0
33592,Hlubočky,49.64720277777778,17.408089722222222,0
33594,Chuchelná,49.988729722222224,18.113120277777778,0
33595,Hlinsko pod Hostýnem,49.37090527777778,17.631886666666666,0
33602,Hlubočky-Mariánské Údolí,49.61331305555556,17.394849166666667,0
33604,Bolatice,49.96336666666667,18.073380277777776,0
33605,Loukov,49.410422499999996,17.71538333333333,0
33612,Hlubočky zastávka,49.62581361111111,17.403079166666664,0
33614,Štěpánkovice,49.950615000000006,18.034604444444447,0
33615,Bzenec,48.96904722222222,17.263038333333334,0
33622,Hostašovice,49.52093861111111,18.01675722222222,0
33624,Návsí (Nawsie),49.58982,18.75456611111111,0
33625,Vracov,48.97661305555556,17.219348888888888,0
33634,Bocanovice (Boconowice),49.563717777777775,18.74025027777778,0
33635,Čejč,48.942116666666664,16.95884472222222,0
33642,Horka nad Moravou,49.637862222222225,17.20132111111111,0
33644,Jindřichov ve Slezsku,50.248559444444446,17.538634722222223,0
33652,Horní Lideč,49.188939722222216,18.058264166666667,0
33654,Jistebník,49.74898555555556,18.150855555555555,0
33655,Dobronín,49.47822333333333,15.64165861111111,0
33662,Mořkov hlavní trať,49.52879333333333,18.068223055555556,0
33672,Lidečko,49.22979388888889,18.04391777777778,0
33674,Karviná hl.n.,49.855537777777776,18.526765277777777,0
33675,Střítež u Jihlavy,49.45894694444445,15.625774444444446,0
33682,Lidečko ves,49.209744722222226,18.05290666666667,0
33685,Kamenná,49.507353888888886,15.655199166666668,0
33692,Střelná,49.17623111111111,18.100057500000002,0
33702,Horní Lipová,50.22460027777778,17.08343111111111,0
33704,Kopřivnice,49.595393333333334,18.14745472222222,0
33714,Kopřivnice zastávka,49.60358055555556,18.14940777777778,0
33715,Dzbel,49.610194166666666,16.848207777777777,0
33722,Hranice na Moravě,49.56543,17.741332222222223,0
33725,Jesenec,49.60635833333333,16.86108638888889,0
33732,Hranice na Moravě město,49.545782777777774,17.741823611111112,0
33735,Konice,49.59148305555556,16.8837825,0
33742,Černotín,49.527390277777776,17.77274611111111,0
33745,Zlín-Malenovice,49.20980083333334,17.599487222222223,0
33752,Hrubá Voda,49.66963,17.43841111111111,0
33754,Kravaře ve Slezsku,49.93507888888889,18.010184722222224,0
33755,Zlín střed,49.226526944444444,17.658512777777776,0
33762,Hrubá Voda zastávka,49.66841888888889,17.421625000000002,0
33764,Kravaře-Kouty,49.93096472222222,18.039135833333336,0
33765,Zlín-Louky,49.21651805555556,17.62366666666667,0
33772,Velká Kraš,50.36237166666667,17.12690611111111,0
33774,Malé Hoštice,49.93218944444444,17.94579361111111,0
33775,Zlín-Podvesná,49.22588666666667,17.69113527777778,0
33782,Kobylá nad Vidnavkou,50.33831916666667,17.12523611111111,0
33784,Velké Hoštice,49.938134444444444,17.969661388888888,0
33785,Zlín-Prštné,49.21982777777778,17.640253055555554,0
33794,Dolní Benešov-Zábřeh,49.92435194444444,18.08240888888889,0
33795,Zlín-Příluky,49.220915833333336,17.715554722222222,0
33805,Grešlové Mýto,48.984426666666664,15.874281944444444,0
33812,Hustopeče nad Bečvou,49.523512777777775,17.864160277777778,0
33815,Blížkovice,49.00426972222222,15.854397222222222,0
33822,Milotice nad Bečvou,49.534237499999996,17.83549722222222,0
33825,Hodonice,48.84143,16.164524166666666,0
33832,Špičky,49.536791388888886,17.812889722222224,0
33835,Dyje,48.85006416666667,16.12062472222222,0
33842,Jablůnka,49.37701027777778,17.947306944444446,0
33845,Hodonín,48.85612416666667,17.121284444444445,0
33852,Bystřička,49.41724444444444,17.958769444444442,0
33855,Holešov,49.327025000000006,17.57115611111111,0
33862,Javorník ve Slezsku,50.3947925,17.015630277777777,0
33865,Dobrotice,49.344825,17.608818055555556,0
33872,Bernartice u Javorníka,50.39663361111111,17.081583055555555,0
33882,Horní Heřmanice,50.38777472222222,17.107450555555555,0
33885,Holubice,49.17977638888889,16.82463361111111,0
33892,Jeseník,50.227678611111116,17.19336277777778,0
33895,Hradčovice,49.04435333333333,17.575232222222223,0
33902,Jindřichov na Moravě,50.099049722222226,16.98922166666667,0
33904,Krnov,50.08855333333334,17.683285277777777,0
33912,Nové Losiny,50.11635638888889,17.00546611111111,0
33914,Krnov-Cvilín,50.09395083333334,17.712831666666666,0
33915,Hrušky zastávka,48.78713,16.981807777777775,0
33925,Hrušovany nad Jevišovkou-Šanov,48.81020944444444,16.383221111111112,0
33934,Kunčice pod Ondřejníkem,49.53481138888889,18.295188333333336,0
33942,Loučná nad Desnou-Filipová,50.05486611111111,17.082392777777777,0
33944,Kroměříž-Oskol,49.29186472222222,17.407468055555555,0
33952,Kouty nad Desnou,50.09881027777778,17.10434111111111,0
33955,Hrušovany u Brna,49.03438638888889,16.591261944444444,0
33962,Loučná nad Desnou,50.07130083333334,17.08641361111111,0
33965,Vojkovice nad Svratkou,49.05600666666666,16.59733861111111,0
33972,Loučná nad Desnou-Rejhotice,50.08846583333334,17.09077472222222,0
33974,Lískovec u Frýdku,49.69813055555555,18.328491944444444,0
33975,Žabčice,49.01117333333333,16.59483138888889,0
33982,Libina,49.87866,17.062183611111113,0
33984,Louky nad Olší,49.79514944444444,18.586793055555553,0
33985,Hulín,49.31678027777778,17.476183055555556,0
33992,Hrabišín,49.90799805555555,17.03854,0
33995,Břest,49.34939416666667,17.455279722222222,0
34005,Třebětice,49.317569444444445,17.520208055555553,0
34014,Opava zastávka,49.92917305555555,17.93456972222222,0
34015,Hustopeče u Brna,48.93740916666666,16.736102777777777,0
34024,Slavkov u Opavy,49.916806666666666,17.848316666666665,0
34025,Huštěnovice,49.114805000000004,17.46494388888889,0
34034,Město Albrechtice,50.16811444444444,17.578709444444446,0
34037,Chornice,49.67713527777777,16.745038611111113,0
34042,Lipník nad Bečvou,49.52929388888889,17.573036388888887,0
34044,Krásné Loučky,50.125499166666664,17.63812111111111,0
34047,Mezihoří,49.70332611111112,16.742009722222225,0
34052,Lipová Lázně,50.228366666666666,17.130778055555556,0
34054,Linhartovy,50.13641361111111,17.6140475,0
34057,Nectava,49.657403333333335,16.78049222222222,0
34062,Lipová Lázně jeskyně,50.244665,17.143358888888887,0
34064,Mladecko,49.89465833333333,17.712516666666666,0
34067,Šubířov,49.626712777777776,16.817362222222222,0
34072,Lipová Lázně zastávka,50.22960694444445,17.160551388888887,0
34074,Dolní Životice,49.894955,17.774065,0
34075,Brno-Chrlice,49.13204777777778,16.657216388888887,0
34082,Litovel,49.712855833333336,17.074605277777778,0
34084,Litultovice,49.88749111111111,17.733946944444444,0
34092,Litovel předměstí,49.69425833333333,17.071339722222223,0
34094,Štáblovice,49.90080111111111,17.82315,0
34102,Cholina,49.65817444444444,17.061029166666668,0
34104,Mosty u Jablunkova (Mosty koło Jabłonkowa),49.524301944444446,18.75126277777778,0
34105,Chropyně,49.36955138888889,17.36111138888889,0
34112,Chudobín,49.69457194444444,17.039003611111113,0
34114,Mosty u Jablunkova zastávka (Mosty koło Jabłonkowa,49.50938333333333,18.751525277777777,0
34115,Věžky,49.40837722222222,17.416270833333332,0
34122,Litovel město,49.701995555555555,17.07098,0
34124,Bohumín,49.90064972222222,18.359482222222223,0
34125,Ivančice,49.09824777777778,16.37279638888889,0
34132,Mladeč,49.70395666666667,17.00299111111111,0
34134,Dolní Lutyně,49.91245361111111,18.414488888888886,0
34135,Ivančice město,49.09903944444444,16.382665833333334,0
34142,Mladeč jeskyně,49.70287583333334,17.014440277777776,0
34144,Nový Jičín město,49.598932500000004,18.008604166666668,0
34145,Ivanovice na Hané,49.306307222222216,17.087151666666667,0
34152,Myslechovice,49.67716583333333,17.048685833333334,0
34154,Šenov u Nového Jičína,49.61140805555556,17.993439444444444,0
34155,Hoštice-Heroltice,49.29163805555555,17.059590833333335,0
34162,Lukavice na Moravě,49.82508416666667,16.916645555555554,0
34164,Odry,49.669853055555556,17.833392777777778,0
34165,Jaroměřice nad Rokytnou,49.09411527777778,15.865419722222223,0
34166,Bohušice,49.08627277777778,15.852726944444445,0
34170,Odry-Loučky,49.685176111111105,17.809224444444446,0
34174,Heřmánky,49.71349277777778,17.758298055555557,0
34175,Šebkovice,49.12211583333333,15.8326275,0
34184,Jakubčovice nad Odrou,49.696843888888885,17.788638055555555,0
34185,Jemnice,49.0160975,15.580951388888888,0
34194,Opava východ,49.93425361111111,17.909198055555553,0
34195,Jihlava-Bosch Diesel,49.443731111111106,15.608424166666666,0
34204,Opava-Komárov,49.917829166666664,17.959713333333333,0
34205,Jihlava-Staré Hory,49.410270833333335,15.567858611111111,0
34214,Kylešovice,49.92505111111111,17.908880555555555,0
34215,Jihlava,49.414761666666664,15.599341944444445,0
34224,Otice,49.918993888888885,17.87009666666667,0
34225,Jihlava město,49.4038775,15.583382777777778,0
34232,Mikulovice,50.30248388888889,17.320256944444445,0
34234,Opava západ,49.93863972222222,17.888480277777777,0
34242,Ondřejovice,50.27236,17.343432777777778,0
34252,Milotice nad Opavou,50.014204722222225,17.5574,0
34254,Vávrovice,49.97515138888889,17.858229444444447,0
34262,Kunov,50.03736333333333,17.515899444444443,0
34272,Nové Heřminovy,50.024747222222224,17.526851944444445,0
34275,Kobylí na Moravě,48.934106111111106,16.881315555555556,0
34282,Mohelnice,49.77675833333333,16.942978888888888,0
34285,Brumovice,48.947243888888885,16.905835555555555,0
34292,Moravičany,49.75830111111111,16.968435555555555,0
34294,Osoblaha,50.268120833333334,17.722468888888887,0
34295,Kojetice na Moravě,49.14944694444444,15.82588611111111,0
34302,Moravský Beroun,49.784417777777776,17.4324325,0
34304,Amalín,50.21604833333333,17.66358222222222,0
34306,Kojetín,49.34542944444445,17.304819166666668,0
34312,Náměšť na Hané,49.59795416666667,17.070305833333332,0
34314,Bohušov,50.240209722222225,17.71495583333333,0
34324,Horní Povelice,50.22574222222222,17.65479583333333,0
34325,Červenka zastávka,49.72122027777778,17.07646972222222,0
34326,Měrovice nad Hanou,49.343853888888894,17.247110555555558,0
34334,Koberno,50.22797972222222,17.698968333333333,0
34345,Šlapanice zastávka,49.1633625,16.720016944444442,0
34352,Nový Malín,49.94591583333333,17.03447666666667,0
34354,Slezské Rudoltice,50.21208888888889,17.68339138888889,0
34362,Olomouc hl.n.,49.59261472222222,17.27848611111111,0
34364,Ostrava hl.n.,49.851368055555554,18.266194444444444,0
34372,Olomouc město,49.59406361111111,17.24118111111111,0
34374,Ostrava-Kunčičky,49.80979194444444,18.29681138888889,0
34382,Olomouc-Hejčín,49.60230083333334,17.236652222222222,0
34384,Ostrava-Mariánské Hory,49.83748861111111,18.240492222222223,0
34385,Kostelec na Hané,49.50901638888889,17.065009444444446,0
34392,Olomouc-Řepčín,49.616461111111114,17.224037499999998,0
34393,Ostrava-Stodolní,49.83513305555556,18.28040361111111,0
34394,Ostrava střed,49.8289625,18.282927777777775,0
34395,Lutotín,49.518505833333336,17.031093888888886,0
34402,Olomouc-Nová Ulice,49.58734722222223,17.24425638888889,0
34405,Zdětín u Prostějova,49.52831194444445,16.987749166666667,0
34412,Olomouc-Smetanovy sady,49.58556777777778,17.25485527777778,0
34414,Ostrava-Kunčice,49.79045083333333,18.29148,0
34424,Ostrava-Bartovice,49.77896777777778,18.340094999999998,0
34434,Ostrava-Svinov,49.82112805555556,18.210304722222222,0
34444,Ostrava-Třebovice,49.842065833333336,18.195733611111113,0
34454,Polanka nad Odrou,49.77858666666667,18.189745,0
34455,Krahulov,49.21525472222223,15.804474444444445,0
34464,Ostravice,49.537754444444445,18.393590833333334,0
34465,Kralice nad Oslavou,49.19243333333333,16.203678055555553,0
34472,Ostružná,50.18360361111111,17.05073527777778,0
34475,Kroměříž,49.30235527777778,17.40289,0
34482,Ramzová,50.193758055555556,17.0635775,0
34485,Bezměrov,49.33204833333334,17.338794166666666,0
34494,Ostravice zastávka,49.55054555555555,18.38032777777778,0
34495,Jarohněvice,49.26305722222222,17.379743333333334,0
34505,Kotojedy,49.283946666666665,17.40343722222222,0
34512,Rapotín zastávka,50.00944388888889,17.031261666666666,0
34514,Paskov,49.73638305555556,18.303271666666667,0
34515,Postoupky,49.320708888888895,17.361600833333334,0
34522,Petrov nad Desnou,50.00075611111111,17.030366388888886,0
34524,Petrovice u Karviné,49.89427194444444,18.549346111111113,0
34532,Rapotín,50.01475555555555,17.0328825,0
34534,Závada,49.897603333333336,18.509350277777777,0
34535,Šelešovice,49.249987777777775,17.363844166666667,0
34542,Velké Losiny,50.031792777777774,17.0426575,0
34544,Polom,49.57427361111112,17.855840833333335,0
34545,Křenovice horní nádraží,49.14347472222222,16.82460222222222,0
34552,Velké Losiny zastávka,50.04005305555555,17.05587888888889,0
34553,Velké Losiny zámek,50.02509583333333,17.03733638888889,0
34554,Bělotín,49.58416861111111,17.798814444444446,0
34555,Hostěrádky-Rešov,49.11983527777778,16.78276861111111,0
34562,Písečná,50.27881333333333,17.25992111111111,0
34565,Zbýšov,49.13267444444445,16.80681638888889,0
34567,Troubelice střed,49.812818888888884,17.076531666666668,0
34572,Česká Ves,50.253078888888886,17.215268333333334,0
34574,Příbor,49.635932777777775,18.142236944444445,0
34575,Křižanov,49.384769444444444,16.080186666666666,0
34582,Hradec-Nová Ves,50.28646333333333,17.273886944444442,0
34584,Ropice (Ropica),49.71232166666667,18.616432500000002,0
34585,Ořechov,49.350300000000004,16.13667277777778,0
34592,Česká Ves bazén,50.260020833333336,17.22818722222222,0
34594,Ropice-Zálesí (Ropica-Zalesie),49.693753611111106,18.596536388888886,0
34595,Kunovice,49.05188722222222,17.470266944444443,0
34603,"Mošnov,Ostrava Airport",49.69336138888889,18.118665555555555,0
34605,Kunovice zastávka,49.038270555555556,17.46106138888889,0
34608,Sedlnice,49.676185555555556,18.089675,0
34614,Skotnice,49.6561325,18.12900777777778,0
34615,Popovice u Uherského Hradiště,49.0464725,17.52680611111111,0
34625,Vésky,49.042831666666665,17.50291222222222,0
34636,Kunovice-Loučka,49.44001194444444,17.818735555555556,0
34642,Osek nad Bečvou,49.51707444444445,17.52365888888889,0
34646,Podhradní Lhota,49.431875,17.79741527777778,0
34652,Prosenice,49.50302444444444,17.48496666666667,0
34655,Kuřim,49.30097416666666,16.53463138888889,0
34662,Přerov,49.447115,17.445299444444444,0
34664,Skrochovice,50.018252777777775,17.777104722222223,0
34665,Česká,49.284280833333334,16.566915277777778,0
34672,Horní Moštěnice,49.41544555555556,17.45247833333333,0
34674,Holasovice,50.000324444444445,17.803908333333332,0
34675,Kyjov,49.016465277777776,17.12297861111111,0
34684,Úvalno,50.04934027777777,17.755016944444446,0
34685,Kyjov zastávka,49.00323,17.123830833333333,0
34694,Studénka,49.70752111111111,18.066474444444445,0
34702,Příkazy,49.63811333333333,17.145201944444445,0
34705,Lednice,48.79416166666667,16.801624166666667,0
34712,Skrbeň,49.63878361111111,17.174753055555556,0
34715,Lednice rybníky,48.78120472222222,16.80328777777778,0
34725,Letovice,49.55609138888889,16.570840277777776,0
34735,Letovice zastávka,49.53517222222222,16.57723861111111,0
34745,Rozhraní,49.602358888888894,16.53215611111111,0
34755,Luhačovice,49.09885861111111,17.751931111111112,0
34765,Biskupice u Luhačovic,49.07703277777778,17.71658861111111,0
34772,Hanušovice Holba,50.0583275,16.923148055555558,0
34775,Polichno,49.068559444444446,17.711243888888887,0
34782,Rožnov pod Radhoštěm,49.46053583333334,18.134550833333332,0
34785,Luka nad Jihlavou,49.369640833333335,15.709813055555555,0
34795,Malý Beranov,49.40239555555556,15.631568611111112,0
34802,Zubří,49.46111888888889,18.09376333333333,0
34804,Suchdol nad Odrou,49.64229972222222,17.93895361111111,0
34805,Bítovčice,49.36296333333333,15.734760833333333,0
34812,Ruda nad Moravou,49.983696944444446,16.88872361111111,0
34814,Hladké Životice místní nádraží,49.67988638888889,17.950824444444443,0
34815,Luleč,49.24856055555556,16.9228625,0
34822,Bartoňov,49.968556944444444,16.87525,0
34824,Jeseník nad Odrou,49.61523527777778,17.901998055555556,0
34825,Lužice,48.82771805555556,17.062372222222223,0
34832,Rýmařov,49.92971194444444,17.28433138888889,0
34837,Městečko Trnávka,49.715205555555556,16.72452222222222,0
34842,Jamartice,49.93407416666666,17.317935833333333,0
34844,Mankovice,49.63576555555556,17.875883055555555,0
34847,Rozstání,49.72846722222222,16.731126944444444,0
34850,Znojmo nemocnice,48.86541416666667,16.048513055555556,0
34852,Velká Štáhle,49.93090333333333,17.352223055555555,0
34854,Štítina,49.912570555555554,18.008628055555555,0
34855,Mikulov na Moravě,48.80201722222222,16.625504166666666,0
34862,Senice na Hané,49.62149,17.099985,0
34864,Mokré Lazce,49.90944944444444,18.030939444444442,0
34865,Březí,48.81276305555555,16.55466388888889,0
34872,Odrlice,49.64351166666667,17.072110833333333,0
34874,Štramberk,49.5829875,18.132516666666668,0
34875,Miroslav,48.93523527777777,16.362522222222225,0
34882,Senice na Hané zastávka,49.63253527777778,17.086633055555556,0
34884,Ženklava,49.564747222222216,18.13091888888889,0
34885,Dolenice,48.9120225,16.367898333333333,0
34892,Sobotín,50.0177025,17.066780277777777,0
34894,Třemešná ve Slezsku,50.19987388888889,17.573796666666667,0
34902,Staré Město pod Sněžníkem,50.162257499999996,16.942059444444446,0
34904,Dívčí Hrad,50.23248777777778,17.644690833333332,0
34907,Mladějov na Moravě,49.82514861111112,16.588195833333334,0
34912,Střeň,49.697516388888886,17.156059166666665,0
34914,Liptaň,50.223554722222225,17.608732222222223,0
34917,Anenská Studánka,49.85456416666667,16.556558333333335,0
34922,Petrov nad Desnou zastávka,50.00517111111111,17.0428575,0
34924,Třinec (Trzyniec),49.68729277777778,18.661879166666665,0
34927,Kunčina,49.796301666666665,16.637831666666667,0
34932,Štěpánov,49.67095805555555,17.22122361111111,0
34934,Třinec-Konská (Trzyniec - KOŃSKA),49.702018333333335,18.64120361111111,0
34937,Trpík,49.84515638888889,16.569563333333335,0
34942,Šternberk,49.720598333333335,17.285885833333335,0
34944,Třinec centrum (Trzyniec Centrum),49.66994972222222,18.681887222222223,0
34945,Modřice,49.133561944444445,16.606181111111113,0
34952,Mladějovice,49.758474166666666,17.235123611111113,0
34955,Moravská Nová Ves,48.799593611111106,17.022163888888887,0
34962,Štarnov,49.68454277777777,17.28494166666667,0
34967,Moravská Třebová,49.766663333333334,16.666290555555555,0
34972,Šumperk,49.961869722222225,16.982878888888887,0
34975,Ostopovice,49.16503611111111,16.54395277777778,0
34976,Brno-Starý Lískovec,49.162245,16.571277777777777,0
34977,Linhartice,49.75194138888889,16.712678333333333,0
34982,Vikýřovice,49.97689333333334,17.013837777777777,0
34984,Veřovice,49.536925,18.133240555555556,0
34985,Moravské Bránice,49.08510916666667,16.428978333333333,0
34992,Teplice nad Bečvou,49.530008333333335,17.748485555555558,0
34995,Ivančice letovisko,49.09471361111111,16.402090277777777,0
35004,Vítkov,49.77422166666667,17.747393055555555,0
35005,Moravské Budějovice,49.05757388888889,15.809225000000001,0
35012,Nová Hradečná,49.835435555555556,17.072266111111112,0
35014,Čermná ve Slezsku,49.78811388888889,17.709460277777776,0
35015,Dědice,49.034276388888884,15.725285555555555,0
35022,Troubelice zastávka,49.82575861111111,17.067533333333333,0
35024,Klokočov,49.737720277777775,17.76966,0
35032,Babice u Šternberka,49.7410925,17.26864722222222,0
35034,Vratimov,49.770765,18.302816111111113,0
35044,Ostrava-Vítkovice,49.80148444444444,18.262380833333335,0
35055,Jackov,49.03668694444444,15.764094444444444,0
35062,Třebčín,49.55081638888888,17.11819138888889,0
35065,Lhotice u Jemnice,49.02193555555556,15.606649166666667,0
35075,Rácovice,49.02392277777778,15.68723638888889,0
35085,Třebelovice,49.02094694444445,15.657955277777779,0
35095,Vesce,49.01895638888889,15.831622222222222,0
35105,Moravský Krumlov,49.04645222222222,16.33827472222222,0
35112,Uničov,49.779226944444446,17.11575888888889,0
35122,Újezd u Uničova,49.77514222222222,17.187160833333333,0
35125,Moravský Písek,48.97717416666667,17.31461638888889,0
35132,Uničov zastávka,49.7775575,17.14465722222222,0
35135,Moravský Písek zastávka,48.99069027777778,17.32947611111111,0
35142,Valašská Polanka,49.257960555555556,17.999491111111112,0
35145,Mutěnice,48.90464611111111,17.03986888888889,0
35152,Lužná u Vsetína,49.24294527777778,18.020107777777778,0
35155,Mutěnice zastávka,48.912085,17.02663527777778,0
35162,Valašské Meziříčí,49.474446111111114,17.960948055555555,0
35172,Brňov,49.437257499999994,17.966966666666664,0
35175,Náměšť nad Oslavou,49.206984444444444,16.14761083333333,0
35182,Hrachovec,49.476151388888894,18.004946944444445,0
35185,Napajedla,49.16322833333333,17.504745555555555,0
35192,Krhová,49.47701611111111,17.98989638888889,0
35195,Spytihněv,49.142271111111114,17.49504027777778,0
35202,Lhotka nad Bečvou,49.504082777777775,17.933033333333334,0
35205,Nedakonice,49.03256833333333,17.37508888888889,0
35212,Zašová,49.46787833333334,18.04190888888889,0
35215,Nedvědice,49.454436944444446,16.336102777777775,0
35222,Valšov,49.93346638888889,17.437098333333335,0
35225,Doubravník,49.42833833333333,16.351623333333336,0
35232,Břidličná lesy,49.917944444444444,17.40280361111111,0
35235,Němčice nad Hanou,49.344949722222225,17.216620833333334,0
35242,Vápenná,50.28418277777777,17.094659166666666,0
35245,Nemotice,49.13298861111111,17.114248055555557,0
35255,Jestřabice,49.08802027777778,17.11308027777778,0
35265,Nesovice,49.14931333333333,17.080613888888887,0
35272,Karolinka zastávka,49.35037694444445,18.231904999999998,0
35275,Brankovice,49.15029694444444,17.133623333333333,0
35282,Velká Bystřice,49.593449722222225,17.345029999999998,0
35285,Nezamyslice,49.33571222222223,17.161525555555553,0
35292,Bystrovany,49.59879277777778,17.32255111111111,0
35295,Chvalkovice na Hané,49.32130166666667,17.111339722222223,0
35302,Velká Bystřice zastávka,49.59770527777778,17.364720000000002,0
35312,Velké Karlovice,49.362278333333336,18.302210277777778,0
35322,Karolinka,49.35040277777778,18.245698333333333,0
35332,Velké Karlovice zastávka,49.35868916666667,18.28599666666667,0
35342,Vrbátky,49.50167166666667,17.197994166666668,0
35352,Kraličky,49.48639611111111,17.180946111111112,0
35362,Vrbno pod Pradědem,50.117852222222226,17.387844444444443,0
35365,Nezdenice,49.02211777777778,17.74892888888889,0
35372,Karlovice,50.10482388888889,17.439354166666668,0
35375,Záhorovice,49.021275277777775,17.778120833333332,0
35382,Pocheň,50.075003611111114,17.44823472222222,0
35385,Nové Město na Moravě,49.568510833333335,16.080520277777776,0
35392,Skrbovice,50.05211555555555,17.484334444444446,0
35395,Nové Město na Moravě zastávka,49.56479472222222,16.060181944444444,0
35402,Široká Niva,50.06654888888889,17.473433055555553,0
35405,Olešná na Moravě,49.561678055555554,16.123956111111113,0
35412,Vrbno pod Pradědem zastávka,50.11429777777778,17.398041666666668,0
35415,Novosedly,48.825741944444445,16.49418388888889,0
35422,Karlovice zastávka,50.107621111111115,17.42766611111111,0
35425,Jevišovka,48.82024305555556,16.467299166666663,0
35435,Dobré Pole,48.820013055555556,16.533883055555556,0
35442,Vsetín,49.33542694444445,17.993359722222223,0
35445,Okříšky,49.248019166666666,15.77085888888889,0
35452,Hovězí,49.304896111111105,18.05969138888889,0
35455,Hvězdoňovice,49.222840000000005,15.758377777777778,0
35462,Janová,49.30812638888889,18.020051388888888,0
35465,Olbramkostel,48.90307111111111,15.949756111111112,0
35472,Leskovec,49.28679638888889,18.000987777777777,0
35475,Osíčko,49.423178888888884,17.742637222222225,0
35492,Ústí u Vsetína zastávka,49.30977583333333,18.00332611111111,0
35495,Uherský Ostroh,48.981790833333335,17.40341861111111,0
35502,Zábřeh na Moravě,49.87196027777778,16.88745361111111,0
35505,Ostrov nad Oslavou,49.49565333333334,15.99200361111111,0
35512,Postřelmov,49.91011611111111,16.923004444444445,0
35515,Zlín-Dlouhá,49.22925416666667,17.672468055555555,0
35522,Zlaté Hory,50.25935305555556,17.383233611111113,0
35525,Zlín-U mlýna,49.20764416666667,17.584785,0
35532,Ondřejovice zastávka,50.26295777777778,17.353866111111113,0
35542,Zábřeh na Moravě zastávka,49.88455388888889,16.888737777777777,0
35555,Ostrožská Nová Ves,49.0096725,17.436417777777777,0
35565,Ostrožská Nová Ves lázně,49.01809111111111,17.446151944444445,0
35572,Žulová,50.30788916666666,17.10279388888889,0
35575,Otrokovice,49.20262944444445,17.53126222222222,0
35582,Tomíkovice,50.322676388888894,17.107691111111112,0
35585,Zlín-Malenovice zastávka,49.20552027777778,17.573721111111112,0
35605,Podivín,48.837498611111116,16.853996666666667,0
35615,Ladná,48.81283111111111,16.88122,0
35625,Rakvice,48.86685777777778,16.821438611111112,0
35635,Otrokovice-Trávníky,49.20030805555556,17.54598027777778,0
35637,Pohled,49.600295,15.657065000000001,0
35647,Stříbrné Hory,49.59723805555556,15.682908333333332,0
35685,Poštorná,48.7507725,16.851967222222225,0
35695,Charvátská Nová Ves,48.75973055555556,16.84251111111111,0
35705,Prostějov hl.n.,49.4727625,17.129546666666666,0
35712,Vrahovice,49.48281777777778,17.150704166666664,0
35725,Prostějov místní nádraží,49.47895638888889,17.111394444444446,0
35737,Přibyslav,49.569698888888894,15.742712222222222,0
35747,Přibyslav zastávka,49.579351111111116,15.717723611111111,0
35757,Ronov nad Sázavou,49.56618527777778,15.774351666666668,0
35765,Křemenec,49.57273277777778,16.90604472222222,0
35767,Nížkov,49.555093888888884,15.799102777777778,0
35775,Ptení,49.52956361111111,16.957665277777778,0
35785,Čunín,49.563674166666665,16.91341861111111,0
35795,Stražisko,49.54241222222222,16.928770555555555,0
35805,Rájec-Jestřebí,49.40858,16.627599166666666,0
35815,Rajhrad,49.08542111111112,16.605299444444444,0
35825,Popovice u Rajhradu,49.10290972222222,16.605601111111113,0
35835,Rakšice,49.01426611111111,16.34510722222222,0
35845,Bohutice,48.9879225,16.35604277777778,0
35855,Rapotice,49.18345833333333,16.257585555555554,0
35865,Vysoké Popovice,49.17836861111111,16.291400833333334,0
35875,Rohatec,48.892804166666664,17.198471944444446,0
35885,Rohatec zastávka,48.88334388888889,17.17866138888889,0
35895,Rohatec kolonie,48.89245583333333,17.212355,0
35905,Rousínov,49.19717583333333,16.868004444444445,0
35925,Rožná,49.47285111111111,16.245284722222223,0
35935,Věžná,49.45170138888889,16.270249166666666,0
35945,Řikonín,49.365164166666666,16.308442222222222,0
35956,Říkovice,49.37896972222222,17.45399527777778,0
35965,Sázava u Žďáru,49.562888611111106,15.847587222222224,0
35972,Vikýřovice-Lesní,49.985348611111114,17.019810555555555,0
35975,Silůvky,49.10816555555556,16.46264722222222,0
35982,Vikýřovice u penzionu,49.96690166666667,17.00381361111111,0
35985,Skalice nad Svitavou,49.4803325,16.60954138888889,0
35995,Doubravice nad Svitavou,49.438650277777775,16.621799722222224,0
36005,Svitávka,49.499879166666666,16.59814972222222,0
36015,Zboněk,49.52113277777778,16.583865277777775,0
36055,Sklené nad Oslavou,49.43730333333333,16.053749166666666,0
36065,Laštovičky,49.4681325,16.01543138888889,0
36075,Slavičín,49.074086111111114,17.899348888888888,0
36085,Hostětín,49.05363555555555,17.872284722222222,0
36105,Slavkov u Brna,49.1449875,16.87359916666667,0
36115,Křižanovice,49.14499416666666,16.93533111111111,0
36125,Sokolnice-Telnice,49.108002500000005,16.733439722222222,0
36135,Újezd u Brna,49.10731027777778,16.745673611111112,0
36145,Staré Město u Uherského Hradiště,49.07634222222222,17.42303138888889,0
36155,Kostelany nad Moravou,49.05273194444444,17.397076388888888,0
36165,Stařeč,49.195184999999995,15.804361111111112,0
36175,Bzenec přívoz,48.93678472222222,17.289314166666667,0
36185,Střelice,49.15391611111111,16.48275333333333,0
36186,Střelice dolní,49.156390277777774,16.50522,0
36195,Vlčatín,49.30546611111111,15.95054611111111,0
36205,Radostice,49.1342575,16.461659444444443,0
36215,Troubsko,49.16328055555555,16.525424722222223,0
36225,Studenec,49.22246027777778,16.06901861111111,0
36235,Pozďatín,49.239267222222225,16.04121138888889,0
36245,Šakvice,48.91256333333333,16.706370277777776,0
36255,Popice,48.924013055555555,16.668970833333333,0
36265,Pouzdřany,48.94132138888889,16.631332222222223,0
36274,Znojmo-Nový Šaldorf,48.820886388888894,16.044191944444446,0
36275,Šatov,48.78084694444444,16.025998333333334,0
36327,Šlapanov,49.5452375,15.6526475,0
36335,Kojatín,49.24391388888889,16.024995,0
36345,Šlapanice,49.15678777777778,16.729388888888888,0
36355,Ponětovice,49.15524,16.750043333333334,0
36365,Šumná,48.92310277777778,15.874313611111111,0
36374,Tetčice,49.17243027777778,16.407710555555553,0
36385,Omice,49.1611025,16.44670138888889,0
36395,Tišnov,49.347500000000004,16.417463333333334,0
36405,Borač,49.40112833333333,16.36604638888889,0
36415,Čebín,49.31921472222223,16.46604138888889,0
36425,Dolní Loučky,49.35641805555556,16.347361944444444,0
36435,Hradčany,49.333598611111114,16.438284444444445,0
36455,Prudká zastávka,49.41888055555555,16.367094722222223,0
36465,Štěpánovice,49.373174444444444,16.389818055555555,0
36475,Tlumačov,49.25377,17.501481944444443,0
36485,Záhlinice,49.291625277777776,17.491284166666667,0
36535,Vladislav zastávka,49.211804722222226,15.982284166666666,0
36545,Poteč,49.15441277777778,18.042728333333336,0
36555,Třebíč,49.21149916666667,15.883974444444444,0
36565,Třebíč-Borovina,49.20890472222222,15.852878333333333,0
36575,Uherské Hradiště,49.066856388888894,17.457185555555554,0
36585,Uherský Brod,49.02182083333333,17.643531666666668,0
36595,Havřice,49.03261583333333,17.620055555555556,0
36615,Újezdec u Luhačovic,49.03282361111111,17.685303333333334,0
36625,Šumice,49.03002111111111,17.72387861111111,0
36635,Valašské Klobouky,49.14219611111111,18.02269611111111,0
36645,Valašské Příkazy,49.16578277777778,18.063411944444447,0
36655,Valtice,48.747480833333334,16.742865555555557,0
36665,Sedlec u Mikulova,48.77471972222222,16.696942777777778,0
36675,Valtice město,48.74865027777778,16.762076666666665,0
36685,Velké Meziříčí,49.34580416666667,16.02182583333333,0
36695,Martinice u Velkého Meziříčí,49.3701975,16.043968333333336,0
36705,Oslavice,49.338861111111115,15.98835472222222,0
36715,Oslavička,49.31889972222223,15.966830555555555,0
36725,Budišov u Třebíče,49.27253611111111,16.00898388888889,0
36735,Rudíkov,49.29788722222222,15.950973055555554,0
36745,Velké Meziříčí zastávka,49.352919166666666,16.008451944444445,0
36765,Velké Pavlovice,48.889939166666665,16.823596388888888,0
36775,Bořetice,48.91633916666667,16.850180833333336,0
36785,Velké Pavlovice zastávka,48.901759722222224,16.822401666666668,0
36795,Veselí nad Moravou,48.948772777777776,17.382481666666667,0
36805,Vizovice,49.220104722222224,17.84326527777778,0
36815,Zádveřice,49.215790000000005,17.808574166666666,0
36835,Vlkoš,48.987865,17.166539166666666,0
36846,Vlkov-Osová,49.32701111111111,16.200919166666665,0
36855,Níhov,49.33665833333333,16.270608333333332,0
36865,Osová Bítýška,49.329750000000004,16.167912222222224,0
36875,Vranovice,48.96381388888889,16.604692500000002,0
36895,Vyškov na Moravě,49.278555555555556,16.99157361111111,0
36905,Zaječí,48.88959166666667,16.781436944444444,0
36915,Zastávka u Brna,49.187489166666666,16.358656111111113,0
36925,Rosice u Brna,49.17843666666666,16.38451222222222,0
36935,Zdounky,49.228837222222225,17.31515611111111,0
36945,Zborovice,49.25356638888889,17.283068055555553,0
36955,Znojmo,48.85300527777778,16.05947138888889,0
36965,Citonice,48.87889416666667,15.977499444444444,0
36985,Zborovice zastávka,49.246271666666665,17.289708611111113,0
37015,Žďár nad Sázavou,49.55347,15.940144722222222,0
37025,Veselíčko,49.55553166666667,16.003221666666665,0
37035,Hamry nad Sázavou,49.5674075,15.896533055555555,0
37045,Radňovice,49.56191111111111,16.03365,0
37055,Lípa nad Dřevnicí,49.21601944444445,17.76960611111111,0
37065,Želechovice nad Dřevnicí,49.219592500000005,17.744280833333335,0
37075,Židlochovice,49.03230111111111,16.617063055555555,0
37085,Sudoměřice nad Moravou,48.87178277777778,17.24317527777778,0
37095,Strážnice,48.897576944444445,17.318878055555555,0
37105,Petrov u Strážnice,48.87890138888889,17.273844999999998,0
37115,Vnorovy,48.930944999999994,17.347829444444443,0
37125,Blatnice pod Svatým Antonínkem,48.940668055555555,17.43933361111111,0
37135,Lipov,48.90982777777778,17.458463055555555,0
37145,Velká nad Veličkou,48.87873305555556,17.510717222222222,0
37155,Louka u Ostrohu,48.9122425,17.484396944444445,0
37175,Javorník nad Veličkou zastávka,48.861155555555555,17.520545555555554,0
37185,Vlárský průsmyk,49.033049444444444,18.053038333333333,0
37205,Veselí nad Moravou-Zarazice,48.93727305555555,17.36192527777778,0
37795,Veselí nad Moravou - Milokošť,48.967083611111114,17.398902777777778,0
38006,Třemešná ve Sl.úz.r.,50.200092222222224,17.574195555555555,0
38034,Ostrava uhelné nádraží,49.85031138888889,18.265531111111112,0
53006,Praha-Běchovice střed,50.08356138888889,14.615073333333333,0
53011,Dobšice nad Cidlinou,50.14010138888889,15.263655,0
53014,Všetaty,50.282424999999996,14.584542222222224,0
53016,Praha-Běchovice,50.08225222222222,14.59849138888889,0
53018,Mělník,50.35297722222222,14.4924275,0
53020,Lípa nad Orlicí,50.141466666666666,16.10249361111111,0
53021,Sány,50.13010972222222,15.241088055555554,0
53024,Dřísy,50.24273638888889,14.634375,0
53026,Praha-Žvahov,50.045649166666664,14.402396111111111,0
53028,Malý Újezd,50.333373611111114,14.525742500000002,0
53030,Převýšov,50.152655833333334,15.40736388888889,0
53034,Ovčáry,50.25375361111111,14.614138888888888,0
53036,Praha-Dolní Počernice,50.08823777777778,14.569317777777778,0
53044,Stará Boleslav,50.209764722222225,14.692351666666667,0
53046,Úvaly,50.074709722222224,14.722915833333333,0
53048,Mělník-Mlazice,50.375217222222226,14.467733611111111,0
53050,Chlumec nad Cidlinou,50.16356527777778,15.457282777777777,0
53054,Otradovice,50.20604027777778,14.746251944444444,0
53056,Praha-Klánovice,50.08712722222222,14.663818333333333,0
53058,Liběchov,50.414386388888886,14.435745555555556,0
53060,Nové Město nad Cidlinou,50.1502225,15.502185277777778,0
53066,Český Brod,50.07666944444445,14.866304166666666,0
53069,Štětí,50.45653138888889,14.393912499999999,0
53070,Káranice,50.15512805555555,15.561325555555555,0
53076,Tuklaty,50.076978611111116,14.77045138888889,0
53079,Hoštka,50.49151333333334,14.327581944444445,0
53080,Dobřenice,50.15969666666666,15.656851944444444,0
53086,Rostoklaty,50.07859416666667,14.805233888888889,0
53089,Polepy,50.51098666666667,14.267529444444445,0
53090,Kratonohy,50.15754527777778,15.610816111111111,0
53096,Poříčany,50.1111525,14.922384166666665,0
53100,Lhota pod Libčany,50.16669916666667,15.6961625,0
53106,Klučov,50.09435888888889,14.903809722222222,0
53109,Křešice u Litoměřic,50.52607833333333,14.214649999999999,0
53110,Praskačka,50.175199444444445,15.731473611111111,0
53114,Lysá nad Labem,50.19559722222222,14.8422325,0
53116,Pečky,50.089801111111115,15.027100833333334,0
53119,Litoměřice město,50.53257138888889,14.139038055555556,0
53120,Hradec Králové hl.n.,50.21459277777778,15.810363055555555,0
53124,Lysá nad Labem-Dvorce,50.200195,14.801596388888889,0
53126,Tatce,50.099244444444444,14.985488333333333,0
53129,Velké Žernoseky,50.52615888888889,14.080470555555555,0
53130,Hradec Králové-Kukleny,50.20203583333333,15.798121111111112,0
53134,Kostomlaty nad Labem,50.18596972222222,14.961675277777777,0
53136,Radim,50.073277222222224,15.007310277777778,0
53139,Libochovany,50.56422583333333,14.040829444444444,0
53140,Hradec Králové-Slezské Předměstí,50.22183583333334,15.859563055555554,0
53144,Stratov,50.187420555555555,14.907162222222222,0
53146,Chotutice,50.07148527777778,14.996297222222221,0
53149,Sebuzín,50.59293027777778,14.053387500000001,0
53150,Hradec Králové zastávka,50.22239861111111,15.841436111111111,0
53154,Ostrá,50.18772555555555,14.892547777777777,0
53156,Velim,50.06761111111111,15.124668611111112,0
53159,Ústí nad Labem západ,50.65814944444444,14.029697222222223,0
53160,Třebechovice pod Orebem,50.200006944444446,15.982305555555556,0
53166,Cerhenice,50.07790694444445,15.079500277777777,0
53170,Blešno,50.21470361111111,15.935986111111111,0
53176,Nová Ves u Kolína,50.05473166666666,15.151158888888888,0
53179,Ústí nad Labem hl.n.,50.659150277777776,14.0440775,0
53180,Týniště nad Orlicí,50.154757777777775,16.074135,0
53186,Karlštejn,49.93194944444444,14.1753325,0
53190,Petrovice nad Orlicí,50.173789444444445,16.04595777777778,0
53196,Srbsko,49.93695444444444,14.131159444444444,0
53199,Ústí nad Labem sever,50.66426027777778,14.080618611111111,0
53200,Častolovice,50.128460277777776,16.173690833333335,0
53206,Zadní Třebaň,49.91880472222222,14.203209999999999,0
53209,Ústí nad Labem-Střekov,50.65000777777777,14.048600277777778,0
53210,Čestice,50.13034444444445,16.14771861111111,0
53214,Nymburk hl.n.,50.19341305555555,15.0459775,0
53216,Řevnice,49.91645805555555,14.238839444444444,0
53220,Častolovice zastávka,50.127625,16.19047888888889,0
53221,Praha-Rajská zahrada,50.107771666666665,14.560738055555555,0
53224,Kamenné Zboží,50.18899583333333,15.003390277777777,0
53226,Dobřichovice,49.92744861111111,14.287925,0
53230,Synkov,50.13936388888889,16.2186,0
53234,Poděbrady,50.14957416666667,15.123855555555556,0
53236,Všenory,49.93279,14.30523527777778,0
53239,Trmice,50.64745166666667,13.987102777777777,0
53240,Kostelec nad Orlicí,50.116550277777776,16.224067499999997,0
53244,Velké Zboží,50.16475305555556,15.100679166666666,0
53246,Černošice-Mokropsy,49.94620027777778,14.330513055555555,0
53249,Koštov,50.63319388888889,13.987809444444444,0
53250,Kostelec nad Orlicí město,50.119867222222226,16.205055555555553,0
53254,Libice nad Cidlinou,50.12770638888889,15.182964444444444,0
53256,Praha-Radotín,49.985950833333334,14.364241388888889,0
53260,Doudleby nad Orlicí,50.10934666666667,16.25882027777778,0
53266,Černošice,49.959808333333335,14.323515833333333,0
53270,Záměl,50.100163333333334,16.29705388888889,0
53280,Potštejn,50.083778055555555,16.315228055555558,0
53287,Trnovany,50.31932166666667,13.597188888888889,0
53289,Teplice v Čechách,50.64653138888889,13.829341944444444,0
53290,Sopotnice,50.07050416666667,16.34042722222222,0
53299,Proboštov,50.66095472222222,13.8380025,0
53300,Litice nad Orlicí,50.087091111111114,16.3578875,0
53307,Veletice,50.296771388888885,13.572494166666667,0
53309,Řetenice,50.64248861111111,13.800874722222224,0
53310,Bohousová,50.09091055555556,16.37976111111111,0
53314,Velký Osek,50.101910277777776,15.193457777777779,0
53320,Žamberk,50.073775000000005,16.450023333333334,0
53324,Veltruby,50.07383638888889,15.199945,0
53327,Holedeček,50.28528333333333,13.558902222222223,0
53330,Letohrad,50.031481666666664,16.507758055555556,0
53337,Měcholupy,50.26636666666667,13.531233611111112,0
53339,Duchcov,50.61737027777778,13.755146111111111,0
53340,Lukavice v Čechách,50.04922027777778,16.484369722222223,0
53347,Želeč,50.241841944444445,13.557230833333334,0
53349,Želénky,50.60147055555556,13.771585555555557,0
53350,Verměřovice,50.01153361111111,16.557744722222225,0
53356,Milostín,50.20249555555556,13.667729444444443,0
53359,Chotějovice,50.57557027777778,13.784594444444444,0
53360,Dolní Dobrouč,50.01251555555555,16.474316111111108,0
53367,Deštnice,50.225765833333334,13.606069999999999,0
53370,Hnátnice,50.00163305555556,16.461404444444444,0
53376,Krupá,50.169715,13.723021666666666,0
53380,Lanšperk,49.99270138888889,16.447335555555554,0
53386,Mutějovice zastávka,50.187458888888884,13.702615833333333,0
53390,Dolní Libchavy,49.989382222222225,16.397095277777776,0
53396,Kolešovice,50.13568194444444,13.603510277777778,0
53399,Most,50.51150527777778,13.658013611111112,0
53400,Jablonné nad Orlicí,50.02640833333333,16.594651388888888,0
53404,Hluboký Důl,50.002450277777776,15.218694444444445,0
53406,Přílepy,50.139955,13.634302499999999,0
53409,Třebušice,50.525304444444444,13.585074722222222,0
53410,Jamné nad Orlicí,50.039943888888885,16.602612500000003,0
53414,Kolín,50.025240277777776,15.214382777777777,0
53416,Kněževes,50.14224027777778,13.640665833333333,0
53420,Těchonín,50.06886055555556,16.60811,0
53424,Kolín zastávka,50.03055611111111,15.195547777777778,0
53426,Chrášťany zastávka,50.14845277777778,13.670828333333333,0
53430,Lichkov,50.09711277777778,16.658201388888887,0
53434,Kolín-Zálabí,50.037165277777774,15.210122499999999,0
53436,Olešná u Rakovníka,50.14938166666666,13.695516666666666,0
53440,Černovír,49.98706305555556,16.42705138888889,0
53444,Kolín místní nádraží,50.015275833333334,15.223002777777777,0
53450,Mladkov,50.0921475,16.629854166666668,0
53454,Záboří nad Labem,50.03099972222222,15.349030277777779,0
53456,Lužná u Rakovníka,50.14492805555555,13.770290555555556,0
53460,Dolní Lipka,50.089394722222224,16.721191944444442,0
53464,Starý Kolín,50.01105888888889,15.296363055555556,0
53466,Rakovník zastávka,50.10569916666667,13.749740277777777,0
53470,Prostřední Lipka,50.09903333333334,16.754050833333334,0
53474,Týnec nad Labem,50.037841666666665,15.359918055555555,0
53476,Řevničov,50.149095555555554,13.832917777777778,0
53480,Červený Potok,50.10471166666667,16.783776666666668,0
53483,Řečany nad Labem,50.03174138888889,15.478811944444445,0
53484,Kolín dílny,50.011695833333334,15.233795555555554,0
53486,Nové Strašecí,50.15202138888889,13.881845833333333,0
53489,Chomutov,50.456765833333336,13.399540277777778,0
53490,Králíky zastávka,50.08672,16.74888166666667,0
53493,Kojice,50.04078472222222,15.39724,0
53496,Stochov,50.1412,13.96552722222222,0
53499,Černovice u Chomutova,50.454323055555555,13.363401111111111,0
53500,Králíky,50.08058583333334,16.75613611111111,0
53503,Chvaletice,50.03745472222222,15.418628333333332,0
53506,Rynholec,50.1386525,13.926065277777777,0
53510,Dolní Orlice,50.06567138888889,16.747396944444446,0
53513,Přelouč,50.03981222222222,15.5739,0
53516,Kladno,50.127826666666664,14.113871388888889,0
53519,Klášterec nad Ohří,50.38506388888889,13.196116944444444,0
53520,Červená Voda,50.046976666666666,16.74651138888889,0
53523,Lhota pod Přeloučí,50.03661583333333,15.527045000000001,0
53525,Červená Voda-Pod rozhlednou,50.036787499999996,16.745973055555556,0
53526,Kamenné Žehrovice,50.140277222222224,14.03798,0
53529,Málkov,50.44172083333333,13.330748611111112,0
53530,Moravský Karlov,50.025683055555554,16.75315833333333,0
53533,Valy u Přelouče,50.03190027777778,15.6142275,0
53536,Kačice,50.15645333333333,13.995337222222222,0
53546,Kladno-Rozdělov,50.13174472222222,14.06699,0
53549,Kadaň-Prunéřov,50.411361944444444,13.258345,0
53556,Kladno město,50.14084472222222,14.085181666666667,0
53559,Hradec u Kadaně,50.35919,13.307846666666668,0
53566,Kladno-Dubí,50.16341583333333,14.129862222222222,0
53569,Kadaň předměstí,50.37674666666667,13.276788611111112,0
53576,Kladno-Vrapice,50.16627555555555,14.1538625,0
53579,Poláky,50.336398333333335,13.349900555555557,0
53580,Podlesí,50.090522222222226,16.84929361111111,0
53589,Želina,50.363308333333336,13.285598055555555,0
53590,Vlaské,50.08744666666667,16.900096388888887,0
53599,Vilémov u Kadaně,50.308097777777775,13.332011666666666,0
53606,Kladno-Švermov,50.16146833333333,14.114819722222222,0
53609,Chotěbudice,50.267966666666666,13.349261944444445,0
53610,Broumov,50.58066527777778,16.339566388888887,0
53613,Pardubice hl.n.,50.03167,15.757556388888888,0
53616,Kladno-Ostrovec,50.147280555555554,14.085536666666668,0
53619,Krásný Dvůr,50.255673055555555,13.368231388888889,0
53623,Pardubice-Opočínek,50.030434722222225,15.669646666666667,0
53626,Unhošť,50.10523277777778,14.136059722222221,0
53629,Pětipsy,50.31939194444445,13.34521638888889,0
53633,Pardubice-Svítkov,50.031864722222224,15.722617222222222,0
53636,Jeneč,50.094328611111116,14.211543055555556,0
53639,Vilémov u Kadaně město,50.304108888888884,13.311196666666667,0
53643,Pardubice-Pardubičky,50.03121055555555,15.788894444444445,0
53644,Pardubice centrum,50.03164638888889,15.772531944444445,0
53646,Pavlov,50.09504555555556,14.165554166666666,0
53649,Vitčice,50.283565555555555,13.338272777777778,0
53650,Broumov-Olivětín,50.60783777777778,16.328238055555556,0
53653,Kostěnice,50.01283361111111,15.897656388888889,0
53656,Hostivice,50.08413222222222,14.258447777777778,0
53659,Vysoké Třebušice,50.26042,13.391628611111111,0
53663,Pardubice-Černá za Bory,50.02744833333333,15.830425277777778,0
53666,Hostivice-Litovice,50.07167194444445,14.224525555555555,0
53669,Radonice u Kadaně,50.298073333333335,13.27728138888889,0
53673,Moravany,50.00219527777778,15.946458333333334,0
53676,Hostivice-Sadová,50.07513222222222,14.266734444444445,0
53677,Chlumčany u Loun,50.344390555555556,13.845561111111111,0
53679,Kadaňský Rohozec,50.283630555555554,13.225743611111112,0
53683,Uhersko,49.9873825,16.014646944444443,0
53686,Hostivice-U hřbitova,50.083891666666666,14.230470555555556,0
53689,Ždov,50.29015638888889,13.239128333333333,0
53693,Zámrsk,49.994953055555555,16.10865805555556,0
53697,Vrbno nad Lesy,50.32727194444445,13.905948055555555,0
53699,Most-Kopisty,50.54346861111111,13.621938055555557,0
53703,Sedlíšťka,49.99015833333333,16.065227222222223,0
53707,Peruc,50.33593416666667,13.958819722222222,0
53709,Litvínov město,50.59135388888889,13.613975555555555,0
53710,Meziměstí,50.62656694444445,16.242254722222224,0
53713,Dobříkov u Chocně,49.99578,16.13625083333333,0
53717,Telce,50.31190611111111,13.971681111111112,0
53719,Březno u Chomutova,50.39587861111111,13.421027777777777,0
53726,Klobuky v Čechách,50.29828222222222,13.996594722222222,0
53730,Hynčice,50.62433055555556,16.288206666666667,0
53736,Vrbičany,50.30965333333333,14.000683055555555,0
53740,Ruprechtice,50.62482138888889,16.268085,0
53746,Páleček,50.29097611111111,14.029840833333335,0
53749,Hořetice,50.37900555555556,13.503728333333333,0
53750,Březová u Broumova,50.60487527777778,16.234708333333334,0
53756,Zlonice,50.284928055555554,14.078165555555556,0
53769,Žiželice,50.36444138888889,13.542085833333333,0
53770,Teplice nad Metují,50.581610000000005,16.178700833333334,0
53779,Žatec,50.33656555555556,13.555266111111111,0
53780,Česká Metuje,50.552345555555554,16.184805,0
53786,Kmetiněves,50.30544694444444,14.161234722222222,0
53789,Žatec západ,50.338104722222226,13.534946388888889,0
53790,Dědov,50.56193138888889,16.187906944444446,0
53796,Černuc,50.31139777777778,14.203165277777778,0
53799,Kadaň,50.38193944444445,13.277042222222223,0
53800,Police nad Metují,50.51330166666666,16.211901666666666,0
53806,Slaný,50.22855083333334,14.0757,0
53810,Žďár nad Metují,50.53738,16.204198333333334,0
53813,Choceň,49.994100277777775,16.223765555555556,0
53816,Královice u Zlonic,50.25975,14.067903888888889,0
53819,Křimov,50.489760833333335,13.27592388888889,0
53820,Hronov,50.47371972222222,16.176416111111113,0
53823,Sruby,49.989847777777776,16.170966111111113,0
53826,Slaný předměstí,50.22625472222222,14.102195833333333,0
53829,Domina,50.47942944444445,13.351634722222222,0
53830,Hronov zastávka,50.49027388888889,16.186291944444445,0
53833,Dvořisko,49.98417333333333,16.19187611111111,0
53836,Podlešín,50.21824388888889,14.155556111111112,0
53840,Náchod,50.417318333333334,16.171076666666668,0
53843,Brandýs nad Orlicí,49.99955638888889,16.285676111111112,0
53846,Zvoleněves,50.23060888888889,14.183826944444444,0
53849,Křimov-Suchdol,50.49014805555556,13.325119166666667,0
53851,Velké Poříčí,50.46354416666667,16.18194,0
53856,Kamenný Most u Kralup nad Vltavou,50.23929138888889,14.205890555555555,0
53859,Křimov zastávka,50.487676666666665,13.295335555555555,0
53860,Náchod-Běloves,50.42339944444444,16.187524444444445,0
53863,Ústí nad Orlicí,49.97106416666667,16.378270833333335,0
53869,Nová Ves u Křimova,50.49558527777778,13.264346388888889,0
53870,Náchod zastávka,50.40829083333333,16.15173472222222,0
53873,Ústí nad Orlicí město,49.968885,16.39447138888889,0
53879,Výsluní,50.481025,13.21108111111111,0
53880,Václavice,50.39485083333333,16.121715277777778,0
53889,Rusová,50.45021138888889,13.168619444444444,0
53890,Nové Město nad Metují,50.35405388888889,16.137509722222223,0
53899,Kovářská,50.43002361111111,13.035065277777777,0
53909,České Hamry,50.438430555555556,13.020457500000001,0
53910,Bohuslavice nad Metují,50.32824194444445,16.095768888888887,0
53913,Česká Třebová,49.89713777777778,16.446208055555555,0
53919,Kovářská městys,50.44015361111111,13.069681388888888,0
53920,Černčice,50.33438888888889,16.105523333333334,0
53923,Dlouhá Třebová,49.93570583333333,16.422593055555556,0
53926,Olovnice,50.23262666666667,14.244840833333333,0
53929,Měděnec,50.428533611111106,13.129875,0
53930,Opočno pod Orlickými horami,50.27844472222222,16.08581361111111,0
53933,Třebovice v Čechách,49.85813138888889,16.497654166666667,0
53936,Neuměřice,50.24057222222223,14.2179175,0
53939,Měděnec zastávka,50.42729,13.107631944444444,0
53940,Bohuslavice nad Metují zastávka,50.31220805555555,16.07973638888889,0
53943,Rudoltice v Čechách,49.892425,16.572534166666667,0
53946,Kralupy nad Vltavou předměstí,50.231862500000005,14.283520833333332,0
53949,Vejprty,50.50024666666667,13.033518888888889,0
53950,Pohoří,50.291755277777774,16.07864138888889,0
53953,Žichlínek,49.86037805555556,16.655024722222223,0
53956,Zeměchy,50.23332388888889,14.266738333333334,0
53959,Vejprty koupaliště,50.48350055555556,13.0339675,0
53963,Krasíkov,49.849449722222225,16.693549722222222,0
53969,Vejprty zastávka,50.46642055555556,13.022276944444446,0
53973,Tatenice,49.859234444444446,16.709999166666666,0
53976,Koleč,50.19667027777778,14.218151666666667,0
53983,Hoštejn,49.872951388888886,16.774483055555553,0
53993,Lupěné,49.867935833333334,16.841191944444443,0
53996,Zákolany zastávka,50.19698222222222,14.25019,0
54003,Luková u Rudoltic v Čechách,49.880203888888886,16.60412861111111,0
54004,Třebešice,49.9315925,15.341285833333334,0
54006,Noutonice,50.160001944444446,14.277891666666667,0
54009,Jirkov,50.49230472222222,13.448840277777778,0
54010,Dobruška,50.28926,16.152328055555554,0
54014,Kutná Hora hl.n.,49.96171805555556,15.30114638888889,0
54016,Kováry,50.181871944444445,14.247364999999999,0
54019,Jirkov zastávka,50.48546416666667,13.447558888888889,0
54024,Hlízov,49.98188388888889,15.293346944444444,0
54026,Středokluky,50.12448833333333,14.254548055555556,0
54030,Bolehošť,50.21462777777778,16.065083333333334,0
54034,Církvice,49.94226666666666,15.329220277777777,0
54036,Tuchoměřice,50.13632166666667,14.268283055555557,0
54040,Očelice,50.243339166666665,16.063267777777778,0
54044,Čáslav,49.91558583333333,15.394311944444445,0
54046,Praha-Zličín,50.06417166666667,14.297773055555556,0
54050,Borohrádek,50.09713083333334,16.085674166666667,0
54054,Horky u Čáslavi,49.87193583333333,15.442924722222223,0
54056,Dobrovíz,50.11077111111111,14.220154444444445,0
54057,Straškov,50.36181888888889,14.242273611111111,0
54060,Žďár nad Orlicí,50.11955944444445,16.06705527777778,0
54061,Dobrovíz-Amazon,50.10739138888889,14.213898333333333,0
54066,Jeneč zastávka,50.09462833333333,14.213326944444443,0
54067,Loucká,50.33045194444445,14.219561666666667,0
54070,Čermná nad Orlicí,50.06480722222222,16.13583611111111,0
54074,Vrdy-Koudelov,49.914722222222224,15.430384722222222,0
54076,Hostouň u Prahy,50.104871111111116,14.209259166666666,0
54080,Újezd u Chocně,50.03174638888889,16.179096666666666,0
54083,Golčův Jeníkov,49.83693055555556,15.468015555555557,0
54089,Litvínov,50.593001944444445,13.610360277777778,0
54090,Plchůvky,50.03885805555555,16.162041111111108,0
54093,Golčův Jeníkov město,49.821874722222226,15.473576944444444,0
54097,Vražkov,50.36738722222222,14.264344166666667,0
54099,Most-Minerva,50.564227777777774,13.623466111111112,0
54100,Solnice,50.203769722222226,16.254067777777777,0
54103,Nová Ves u Leštiny,49.78351722222222,15.40418,0
54104,Vlkaneč,49.804094444444445,15.405085277777777,0
54105,Solnice zastávka,50.19982694444444,16.256399444444444,0
54107,Mnetěš,50.35991861111111,14.275985833333333,0
54109,Lom u Mostu,50.593183333333336,13.661079444444445,0
54110,Rychnov nad Kněžnou,50.15796611111111,16.273634722222223,0
54113,Leština u Světlé,49.76121444444444,15.398763055555555,0
54117,Bříza obec,50.363533611111116,14.2183325,0
54119,Osek,50.61366694444445,13.708150555555555,0
54120,Rychnov nad Kněžnou zastávka,50.166221944444445,16.270641666666666,0
54123,Sázavka,49.72984972222223,15.398601666666666,0
54127,Roudnice nad Labem-Hracholusky,50.41692277777778,14.252987222222222,0
54129,Háj u Duchcova,50.61944861111111,13.725386666666667,0
54130,Slemeno,50.146921666666664,16.241859444444444,0
54133,Světlá nad Sázavou,49.6704225,15.417435555555555,0
54137,Roudnice nad Labem město,50.42166222222222,14.258715277777778,0
54140,Rokytnice v Orlických horách,50.161494166666664,16.465306944444443,0
54143,Pohleď,49.65106111111111,15.456221944444444,0
54147,Kleneč,50.394350277777775,14.246851666666666,0
54149,Louka u Litvínova,50.593112222222224,13.631330277777778,0
54150,Pěčín,50.160847777777775,16.41933777777778,0
54153,Světlá nad Sázavou-Josefodol,49.69043222222222,15.424181388888888,0
54157,Mšené Lázně,50.36174861111111,14.133062777777779,0
54159,Lom u Mostu zastávka,50.59701472222223,13.649340555555556,0
54160,Vamberk,50.118001666666665,16.282909166666666,0
54163,Mrzkovice,49.65718611111111,15.373696111111112,0
54167,Charvatce,50.359302222222226,14.148921944444444,0
54169,Osek město,50.625886666666666,13.684962777777779,0
54170,Slatina nad Zdobnicí,50.1368325,16.37767277777778,0
54173,Dolní Březinka,49.66139833333333,15.380665,0
54177,Martiněves u Libochovic,50.37958305555556,14.141485833333332,0
54179,Horní Háj,50.639831944444445,13.70380222222222,0
54180,Rybná nad Zdobnicí,50.12746388888889,16.343155555555555,0
54183,Světlá nad Sázavou město,49.669243611111106,15.40180638888889,0
54187,Vrbka,50.38971083333333,14.140511666666667,0
54189,Hrob,50.660063055555554,13.722078611111112,0
54190,Peklo nad Zdobnicí,50.12206027777778,16.30559361111111,0
54193,Okrouhlice,49.630700833333336,15.487033055555555,0
54197,Budyně nad Ohří,50.40508305555555,14.134298888888889,0
54199,Střelná v Krušných horách,50.67035333333333,13.740241944444444,0
54203,Havlíčkův Brod-Perknov,49.61418805555556,15.539622777777778,0
54207,Břežany nad Ohří,50.41258777777777,14.115668611111111,0
54209,Dubí,50.69753166666666,13.762195833333333,0
54212,Liberec,50.76136527777778,15.045593333333333,0
54213,Havlíčkův Brod,49.59841305555556,15.58811888888889,0
54217,Žabovřesky nad Ohří,50.41569138888889,14.086233611111112,0
54219,Mikulov v Krušných horách,50.693554444444445,13.723733333333334,0
54222,Liberec-Rochlice,50.74727777777778,15.061628055555556,0
54223,Petrkov,49.57613638888889,15.552722222222222,0
54225,Luštěnice,50.321432,14.9444698,0
54227,Horní Beřkovice,50.357327222222224,14.35529111111111,0
54229,Moldava v Krušných horách,50.71781111111111,13.691474166666668,0
54232,Rychnov u Jablonce nad Nisou,50.68386555555555,15.143924444444444,0
54233,Lípa,49.55631083333333,15.538396944444445,0
54237,Ctiněves,50.37837916666667,14.306418055555556,0
54239,Mikulov-Nové Město,50.70232277777778,13.702148055555554,0
54242,Rádlo,50.69431583333333,15.108415833333334,0
54243,Břevnice,49.632289722222225,15.61617611111111,0
54247,Kostomlaty pod Řípem,50.380428333333334,14.330153055555556,0
54252,Jeřmanice,50.70738222222222,15.086512777777779,0
54253,Pohledští Dvořáci,49.610308611111115,15.615129166666666,0
54257,Roudnice nad Labem,50.426485,14.264335555555556,0
54262,Pilínkov,50.72725055555556,15.0354525,0
54263,Mírovka,49.579416944444446,15.618519444444445,0
54267,Dobříň,50.437237222222215,14.296424444444444,0
54272,Hodkovice nad Mohelkou,50.66725694444444,15.100773333333333,0
54273,Dolík,49.5861,15.564475833333335,0
54277,Roudnice nad Labem-Bezděkov,50.428648055555556,14.282111666666667,0
54282,Sychrov,50.629351666666665,15.078350555555556,0
54287,Hněvice,50.45304638888889,14.361433333333332,0
54292,Sedlejovice,50.63663388888889,15.099088611111112,0
54297,Záluží,50.45682222222222,14.325531666666667,0
54300,Turnov,50.58717611111111,15.138454444444443,0
54306,Dolní Beřkovice,50.38880638888889,14.436541944444444,0
54309,Jílové u Děčína,50.75971083333334,14.105474166666665,0
54312,Doubí u Turnova,50.60792416666667,15.101876666666666,0
54313,Opatov,49.81520722222222,16.485844166666666,0
54316,Horní Počaply,50.42260916666667,14.386650555555555,0
54318,Jeníkov-Oldřichov,50.63625944444444,13.75550138888889,0
54319,Děčín-Bynov,50.77991083333333,14.15385,0
54321,Loukov u Mnichova Hradiště,50.55870916666667,15.05652138888889,0
54323,Semanín,49.84790527777778,16.474194166666663,0
54326,Vraňany,50.33525222222222,14.371764722222222,0
54329,Děčín-Oldřichov,50.77901833333333,14.171285555555555,0
54332,Příšovice,50.57909333333334,15.078717777777777,0
54333,Svitavy,49.75909472222222,16.479631388888887,0
54336,Cítov,50.36611833333333,14.418357222222221,0
54339,Martiněves u Děčína,50.770585277777776,14.1238075,0
54341,Březina nad Jizerou,50.54562833333333,15.036166111111111,0
54343,Opatovec,49.793388888888884,16.48721527777778,0
54349,Libouchec,50.75601555555556,14.045797499999999,0
54351,Mnichovo Hradiště,50.51833611111111,14.978160555555556,0
54353,Svitavy zastávka,49.763511111111114,16.455415277777778,0
54356,Mlčechvosty,50.319166111111116,14.347636111111111,0
54359,Kamenec,50.75590666666667,14.070323333333333,0
54361,Bakov nad Jizerou,50.472188333333335,14.922851111111111,0
54366,Nelahozeves,50.2835025,14.3087475,0
54369,Modrá u Děčína,50.75799277777778,14.081582777777777,0
54371,Bakov nad Jizerou město,50.47897666666667,14.939193333333334,0
54376,Nové Ouholice,50.30231694444444,14.316891666666667,0
54379,Malé Chvojno,50.73921666666667,14.023584444444445,0
54386,Nelahozeves zámek,50.26271888888889,14.302426944444445,0
54389,Telnice,50.72691666666667,13.964668055555554,0
54396,Kralupy nad Vltavou,50.23820027777778,14.313855277777778,0
54399,Chlumec u Chabařovic,50.703696111111114,13.926444444444444,0
54406,Chvatěruby,50.23989027777778,14.337682222222222,0
54409,Unčín,50.69101611111111,13.897335833333333,0
54411,Buda,50.47881666666667,14.986558333333333,0
54414,Milovice,50.22920388888889,14.881689166666668,0
54419,Krupka,50.678533888888886,13.85077361111111,0
54421,Kněžmost,50.472639722222226,15.016606944444444,0
54424,Veleliby,50.21460444444445,15.023507500000001,0
54426,Zlonín,50.215002222222225,14.507390833333334,0
54427,Krupka-Bohosudov,50.67233861111111,13.874997500000001,0
54429,Bohosudov zastávka,50.68626472222222,13.873833888888889,0
54431,Lítkovice,50.462828333333334,15.045805277777777,0
54436,Libčice nad Vltavou,50.20003416666667,14.364090555555554,0
54439,Krupka město,50.68231194444444,13.860773333333333,0
54441,Mladá Boleslav-Debř,50.44805472222222,14.887345277777777,0
54446,Dolany nad Vltavou,50.22426472222222,14.348914166666667,0
54449,Novosedlice,50.65896333333333,13.820456944444445,0
54451,Mladá Boleslav hl.n.,50.407339444444446,14.887203611111111,0
54456,Libčice nad Vltavou-Letky,50.18957111111111,14.372756944444445,0
54459,Teplice lesní brána,50.65062222222222,13.805765833333334,0
54466,Roztoky u Prahy,50.159591388888884,14.398406388888889,0
54471,Krnsko,50.376598333333334,14.869148888888889,0
54476,Řež,50.179179999999995,14.355313888888888,0
54481,Chotětov,50.339557222222226,14.810278055555557,0
54486,Úholičky,50.17017055555555,14.351777222222221,0
54496,Roztoky-Žalov,50.16805194444444,14.365005,0
54506,Praha-Sedlec,50.13227555555556,14.393850833333333,0
54509,Obrnice,50.50445333333333,13.700085555555555,0
54511,Kojovice,50.30710138888889,14.656223055555555,0
54514,Sadská,50.13132138888889,14.986685277777777,0
54516,Otvovice,50.21020194444445,14.270118333333334,0
54521,Zdětín u Chotětova,50.31545583333333,14.786091944444445,0
54526,Kralupy nad Vltavou-Minice,50.22444222222222,14.2979125,0
54531,Kropáčova Vrutice,50.32349944444445,14.701092777777777,0
54532,Varnsdorf - pivovar Kocour,50.918410277777774,14.604354166666667,0
54536,Zákolany,50.199733888888886,14.251649444444444,0
54541,Košátky,50.31675611111111,14.669986111111111,0
54546,Brandýsek,50.184221666666666,14.17289972222222,0
54549,Želenice nad Bílinou,50.5251775,13.7249925,0
54551,Byšice,50.30567027777777,14.603724444444444,0
54554,Nymburk město,50.18468,15.033458055555556,0
54556,Dřetovice,50.189206388888884,14.201670555555555,0
54559,Bečov u Mostu,50.4565825,13.711698888888888,0
54561,Kadaň-Bystřice,50.39630777777778,13.275636666666667,0
54562,Nové Město pod Smrkem,50.92483277777777,15.224220833333334,0
54564,Hořátev,50.1529201,15.0288512,0
54566,Velvary,50.282220555555554,14.243290277777778,0
54569,Břvany,50.40797472222222,13.723074166666667,0
54572,Jindřichovice pod Smrkem,50.958755000000004,15.254306944444444,0
54576,Olovnice zastávka,50.246811944444445,14.253705,0
54579,Lenešice,50.37752888888889,13.773552222222223,0
54582,Horní Řasnice,50.95198111111112,15.197699166666666,0
54585,Třebestovice,50.12556527777778,14.960676666666666,0
54586,Velká Bučina,50.26739944444444,14.239823055555554,0
54589,Dobroměřice,50.37092111111111,13.798974444444445,0
54592,Jindřichovice pod Smrkem-Skanzen,50.95910333333334,15.228190277777777,0
54596,Chlumín,50.26716694444444,14.456166111111111,0
54599,Louny,50.36118277777778,13.822798055555555,0
54602,Hajniště,50.92881194444444,15.197380555555556,0
54606,Úžice,50.25644444444445,14.376598611111111,0
54609,Louny město,50.350275277777776,13.796410555555555,0
54612,Řasnice zastávka,50.93955416666666,15.163228055555557,0
54613,Pardubice-Rosice nad Labem,50.045430277777776,15.742852777777777,0
54616,Netřeba,50.260086666666666,14.422418055555555,0
54622,Řasnice,50.93888694444444,15.151098611111111,0
54626,Jiřice,50.23887027777778,14.546759166666666,0
54629,Veltěže,50.359535,13.864394722222222,0
54632,Krásný Les,50.937685555555554,15.128515277777778,0
54633,Pardubice závodiště,50.024297499999996,15.751036388888888,0
54636,Kostelec nad Labem,50.22108083333333,14.580737777777777,0
54639,Louny střed,50.35369638888889,13.806377222222222,0
54642,Krásný Les bažantnice,50.930794999999996,15.109033055555555,0
54643,Staré Jesenčany,50.00003666666667,15.757064444444444,0
54646,Brandýs nad Labem,50.18348638888889,14.655219444444445,0
54650,Brandýs nad Labem-Zápská,50.18361194444444,14.664953055555555,0
54652,Frýdlant v Čechách,50.91898305555555,15.073431944444444,0
54653,Chrudim,49.94818222222222,15.786893333333333,0
54656,Polerady nad Labem,50.20469777777778,14.61021,0
54662,Frýdlant v Čechách předměstí,50.926832777777776,15.076423888888888,0
54663,Medlešice,49.97456694444445,15.767682500000001,0
54666,Brandýs nad Labem zastávka,50.18039361111111,14.67783861111111,0
54673,Chrudim zastávka,49.95930416666667,15.781104444444445,0
54683,Slatiňany,49.91891277777778,15.825167222222221,0
54686,Neratovice,50.262704444444445,14.517573333333335,0
54687,Neratovice město,50.256945,14.519995555555557,0
54688,Neratovice sídliště,50.2574,14.5076,0
54693,Chrast u Chrudimi,49.901335277777775,15.910781944444444,0
54696,Lobkovice,50.25088083333333,14.5307475,0
54703,Zaječice,49.900533055555556,15.879861388888889,0
54706,Tišice,50.26766388888889,14.55705638888889,0
54709,Řehlovice,50.612655833333335,13.954789166666666,0
54713,Horka u Chrudimi,49.882309444444445,15.911690277777778,0
54716,Kojetice u Prahy,50.23711138888889,14.499075833333332,0
54719,Brozánky,50.608488333333334,13.935988333333334,0
54723,Orel,49.914562499999995,15.841907777777779,0
54726,Měšice u Prahy,50.20460611111111,14.513625,0
54729,Stadice,50.61714583333333,13.969935555555555,0
54736,Hovorčovice,50.180474999999994,14.527684166666667,0
54739,Rtyně nad Bílinou,50.601731666666666,13.912796944444445,0
54742,Višňová,50.973194722222225,15.028477777777779,0
54746,Mochov zastávka,50.14524361111111,14.769203333333333,0
54749,Velvěty,50.606496666666665,13.895261111111111,0
54752,Černousy,51.008115277777776,15.037449166666667,0
54756,Čelákovice zastávka,50.159816944444444,14.735454166666665,0
54759,Ohníč,50.58906027777778,13.842092500000001,0
54762,Filipovka,50.98986444444444,15.02505638888889,0
54766,Praha-Satalice,50.12281111111111,14.571523611111111,0
54772,Minkovice,50.95063027777778,15.028990277777778,0
54775,Čelákovice-Jiřina,50.16746833333333,14.765397222222223,0
54776,Čelákovice,50.157849444444444,14.75436611111111,0
54786,Lázně Toušeň,50.168594444444444,14.711400833333332,0
54789,Světec,50.57897277777778,13.797514166666666,0
54796,Mochov,50.136495555555555,14.794646111111112,0
54799,Bílina-Chudeřice,50.5719475,13.786504444444445,0
54806,Mstětice,50.13663416666667,14.691428055555555,0
54809,Hostomice nad Bílinou,50.58517472222223,13.810301666666668,0
54810,Opatovice nad Labem,50.155877499999995,15.78366138888889,0
54812,Raspenava,50.89650944444445,15.1305175,0
54813,Žďárec u Skutče,49.826218888888896,15.97807,0
54816,Zeleneč,50.1303575,14.666256666666667,0
54819,Bílina,50.554069444444444,13.77214,0
54822,Luh pod Smrkem,50.89178722222222,15.151921666666667,0
54823,Vrbatův Kostelec,49.85490277777778,15.937318055555556,0
54826,Praha-Horní Počernice,50.116303611111114,14.610770277777778,0
54829,Bílina kyselka,50.54042361111111,13.759461666666667,0
54832,Hejnice,50.879619166666664,15.18487611111111,0
54833,Prosetín,49.83253027777778,15.961847777777777,0
54836,Vráž u Berouna,49.984069444444444,14.124065833333335,0
54842,Lužec pod Smrkem,50.88645527777778,15.164663055555556,0
54843,Pokřikov,49.79349916666666,15.981383333333333,0
54846,Loděnice,49.992845833333334,14.163003611111112,0
54852,Bílý Potok pod Smrkem,50.87605305555556,15.206171388888889,0
54853,Hlinsko v Čechách,49.766773055555554,15.901764444444444,0
54856,Nučice,50.024029999999996,14.22495138888889,0
54859,Počerady,50.415280277777775,13.686024166666668,0
54862,Mníšek u Liberce,50.83243166666667,15.065313611111112,0
54863,Vojtěchov,49.792095833333335,15.971985555555555,0
54866,Nučice zastávka,50.01515722222222,14.212783888888888,0
54869,Volevčice,50.42860388888889,13.685625555555555,0
54872,Oldřichov v Hájích,50.855466666666665,15.091697222222223,0
54873,Holetín,49.78817305555555,15.927275,0
54876,Chýně,50.058843055555556,14.21202861111111,0
54879,Výškov v Čechách,50.39279805555555,13.688844166666668,0
54882,Krásná Studánka,50.80136472222222,15.038241666666666,0
54886,Chýně jih,50.051714999999994,14.221001388888888,0
54888,Vítanov,49.75308722222222,15.878063333333333,0
54892,Stráž nad Nisou,50.78856,15.025678333333333,0
54893,Stružinec,49.73078972222223,15.833865000000001,0
54896,Rudná zastávka,50.03518972222222,14.235695833333333,0
54902,Tanvaldský Špičák,50.76089916666667,15.26753888888889,0
54903,Ždírec nad Doubravou,49.70009666666667,15.804348333333333,0
54906,Jinočany,50.0290125,14.262646944444445,0
54909,Postoloprty,50.36045666666667,13.69164861111111,0
54912,Kořenov,50.77013055555555,15.365596944444444,0
54913,Sobíňov,49.69864861111111,15.759919444444444,0
54916,Rudná u Prahy,50.03940583333333,14.242630833333333,0
54919,Lišany u Žatce,50.34614583333334,13.648428333333333,0
54922,Harrachov,50.771515,15.393264722222222,0
54923,Chotěboř,49.71175388888889,15.6824625,0
54926,Praha-Řeporyje,50.03225861111111,14.309405833333335,0
54929,Dolejší Hůrky,50.34021166666667,13.626967222222223,0
54933,Bílek,49.70601916666667,15.7336525,0
54936,Zbuzany,50.026288888888885,14.280430555555556,0
54939,Touchovice u Loun,50.301827777777774,13.728285277777777,0
54942,Kořenov zastávka,50.762187222222224,15.34666527777778,0
54943,Rozsochatec,49.66974138888889,15.632608333333334,0
54946,Praha-Holyně,50.03268305555555,14.348268055555556,0
54949,Tvršice,50.34074944444445,13.597109722222223,0
54952,Tanvald,50.74349388888889,15.311099444444444,0
54956,Praha-Uhříněves,50.03378583333333,14.591289444444445,0
54959,Březno u Postoloprt,50.35165916666667,13.722023611111112,0
54962,Dolní Polubný,50.76053861111111,15.323113888888889,0
54969,Hřivice,50.28545194444444,13.725161388888889,0
54972,Desná,50.753499166666664,15.308955000000001,0
54973,Desná-Riedlova vila,50.75919777777778,15.314053888888889,0
54974,Desná-Pustinská,50.76408527777778,15.335324444444446,0
54976,Praha-Kolovraty,50.013622222222224,14.6263275,0
54979,Jimlín,50.32661111111111,13.751075833333333,0
54982,Tanvald zastávka,50.73688416666667,15.304841388888889,0
54986,Říčany,49.99718194444444,14.66426888888889,0
54989,Opočno u Loun,50.3124775,13.733873333333333,0
54992,Smržovka dolní nádraží,50.73479694444445,15.280444444444445,0
54996,Světice,49.97033027777778,14.658135555555555,0
54999,Solopysky,50.25150333333333,13.748105277777777,0
55002,Jablonec nad Nisou centrum,50.720865,15.173879444444443,0
55003,Borová u Poličky zastávka,49.7318675,16.174445555555558,0
55006,Strančice,49.949483055555554,14.67773611111111,0
55009,Konětopy,50.268099166666666,13.72659111111111,0
55012,Smržovka střed,50.731901666666666,15.254924722222222,0
55013,Skuteč,49.83763416666667,15.994956944444443,0
55016,Mnichovice,49.93258333333333,14.707152222222222,0
55019,Domoušice,50.23294055555556,13.722533055555555,0
55022,Smržovka,50.740251666666666,15.243885833333332,0
55023,Předhradí,49.82419361111111,16.01862111111111,0
55026,Senohraby,49.8970475,14.727525277777778,0
55028,Mutějovice,50.21713944444445,13.704441944444444,0
55032,Josefův Důl,50.77947694444445,15.240259722222222,0
55033,Čachnov,49.75302111111111,16.059855000000002,0
55036,Mirošovice u Prahy,49.91014305555555,14.720236111111111,0
55038,Kounov,50.21606833333334,13.665197222222222,0
55042,Antonínov,50.77151805555555,15.249464444444444,0
55043,Krouna,49.77833388888889,16.036814722222225,0
55046,Čerčany,49.85142944444445,14.701939722222221,0
55048,Svojetín,50.19825972222222,13.632298611111112,0
55052,Jiřetín pod Bukovou,50.756978333333336,15.263920277777778,0
55053,Pustá Kamenice,49.75454583333333,16.081712777777778,0
55056,Pyšely,49.86149777777778,14.699329722222222,0
55058,Hořesedly,50.16824333333333,13.641235555555555,0
55062,Nová Ves nad Nisou,50.7239225,15.193787777777779,0
55063,Polička,49.71884527777778,16.264539166666665,0
55066,Mrač,49.83229777777778,14.69792638888889,0
55068,Chrášťany,50.14191722222222,13.663413611111112,0
55072,Lučany nad Nisou,50.739535000000004,15.225692222222222,0
55073,Borová u Poličky,49.74311027777778,16.161615555555553,0
55076,Lštění,49.863642222222225,14.71566,0
55082,Jablonecké Paseky,50.732106944444446,15.193382777777778,0
55083,Oldřiš,49.72848861111111,16.19403777777778,0
55086,Zlenice,49.87939027777778,14.733396944444443,0
55092,Jablonec nad Nisou,50.72092305555556,15.160792500000001,0
55093,Sádek u Poličky,49.717800555555556,16.214899166666665,0
55096,Poříčí nad Sázavou,49.837339444444446,14.6762625,0
55102,Jablonec nad Nisou zastávka,50.720395833333335,15.186288333333334,0
55103,Pomezí zastávka,49.72119388888889,16.29116388888889,0
55106,Benešov u Prahy,49.779689166666664,14.682706111111111,0
55109,Teplice zámecká zahrada,50.63368611111111,13.813692222222222,0
55112,Jablonec nad Nisou dolní nádraží,50.726281666666665,15.149195833333334,0
55113,Pomezí,49.720750833333334,16.325583055555555,0
55116,Bystřice u Benešova,49.741625,14.666225555555556,0
55119,Bystřany v Čechách,50.62549666666667,13.862786388888889,0
55122,Vesec u Liberce,50.74322111111111,15.081380555555555,0
55123,Květná,49.72921916666667,16.366981666666668,0
55126,Tomice,49.69837555555555,14.652139722222223,0
55129,Prosetice,50.63101611111111,13.842356666666667,0
55132,Proseč nad Nisou,50.72834111111111,15.115705555555556,0
55133,Vendolí zastávka,49.736668333333334,16.39545972222222,0
55136,Olbramovice,49.66674944444444,14.624046944444444,0
55139,Úpořiny,50.609645,13.879102777777778,0
55142,Vratislavice nad Nisou,50.74013055555556,15.093528333333333,0
55146,Vrchotovy Janovice,49.65867361111111,14.579451944444445,0
55149,Lbín,50.60570916666667,13.85937388888889,0
55152,Liberec-Horní Růžodol,50.753544444444444,15.032887777777779,0
55153,Pustá Kamenice zastávka,49.752493333333334,16.09286583333333,0
55156,Voračice,49.66155416666667,14.556544166666667,0
55159,Žalany,50.58912527777778,13.900676944444445,0
55162,Ostašov,50.763309166666666,15.01299,0
55163,Květná zastávka,49.72684666666667,16.354474444444445,0
55166,Minartice,49.66701972222222,14.53931388888889,0
55169,Hradiště v Čechách,50.59361444444445,13.876060555555556,0
55172,Karlov pod Ještědem,50.77365972222222,14.983694166666666,0
55173,Krouna zastávka,49.786178888888884,16.035178333333334,0
55176,Sedlčany,49.65587027777778,14.434333888888888,0
55179,Žalany zastávka,50.58716277777778,13.916153055555556,0
55182,Křižany,50.75142944444445,14.918542777777777,0
55186,Štětkovice,49.666757777777775,14.516800555555557,0
55189,Radejčín,50.58053833333334,14.003111666666667,0
55192,Novina,50.760019166666666,14.941697777777778,0
55196,Kosova Hora,49.65940138888889,14.480002222222222,0
55199,Bořislav,50.58562888888889,13.936954166666666,0
55202,Kryštofovo Údolí,50.77208638888889,14.941977222222222,0
55203,Litomyšl zastávka,49.881211666666665,16.29271027777778,0
55206,Votice,49.63813138888889,14.619707222222223,0
55209,Žim,50.58710527777778,13.965008333333333,0
55212,Zdislava,50.77014277777778,14.876774444444445,0
55213,Litomyšl,49.874743055555555,16.304109166666667,0
55216,Heřmaničky,49.60190777777778,14.584415277777778,0
55219,Chotiměř,50.547225,13.989148055555555,0
55222,Rynoltice,50.78695722222222,14.82661861111111,0
55223,Litomyšl-Nedošín,49.88578972222222,16.279999999999998,0
55226,Střezimíř,49.543363888888884,14.6215975,0
55232,Lvová,50.78100083333333,14.787852222222222,0
55233,Tržek,49.88982444444444,16.260419722222224,0
55236,Ješetice,49.57788888888889,14.596326944444446,0
55239,Oparno,50.54243777777778,14.013040555555555,0
55242,Velké Hamry,50.71160888888889,15.313781666666667,0
55243,Řídký,49.89197,16.246312222222222,0
55246,Červený Újezd u Votic zastávka,49.560543055555556,14.613598055555554,0
55252,Plavy,50.701344722222224,15.317869722222222,0
55253,Cerekvice nad Loučnou,49.90572361111111,16.206160833333332,0
55256,Mezno,49.536615,14.654449166666668,0
55262,Velké Hamry město,50.719434722222225,15.313440555555557,0
55263,Cerekvice nad Loučnou zastávka,49.90098416666667,16.218791666666664,0
55266,Sudoměřice u Tábora,49.50710888888889,14.659507222222222,0
55273,Hrušová,49.911075833333335,16.196796111111112,0
55276,Chotoviny,49.472316944444444,14.669375833333334,0
55280,Jesenný,50.65163222222222,15.327800833333333,0
55283,Vysoké Mýto,49.95516694444445,16.14741972222222,0
55286,Postupice,49.73803916666667,14.782319444444445,0
55290,Spálov,50.633786944444445,15.300395555555557,0
55292,Smržovka-Luční,50.73508916666667,15.249550555555555,0
55293,Džbánov,49.92521583333333,16.17418638888889,0
55296,Myslíč,49.764741666666666,14.72332638888889,0
55303,Vysoké Mýto město,49.95051638888889,16.155750277777777,0
55306,Struhařov,49.762059444444446,14.749241111111111,0
55309,Libčeves,50.4486825,13.830459166666666,0
55310,Rovensko pod Troskami,50.531725,15.263936944444444,0
55313,Slatina u Vysokého Mýta,49.975004722222224,16.163314166666666,0
55316,Dobříčkov,49.75242111111111,14.761788333333334,0
55319,Bělušice,50.45229555555556,13.766412222222222,0
55320,Turnov město,50.579597222222226,15.15193111111111,0
55326,Městečko u Benešova,49.730808055555556,14.805476666666667,0
55329,Židovice,50.447716111111106,13.864688888888889,0
55330,Karlovice-Sedmihorky,50.561701388888885,15.196567777777778,0
55336,Lhota Veselka,49.72100416666667,14.815130833333335,0
55340,Hrubá Skála,50.550335,15.213025,0
55346,Domašín,49.71499416666667,14.836766944444445,0
55350,Borek pod Troskami,50.53550833333333,15.232226944444445,0
55353,Lanškroun,49.90856,16.603268055555557,0
55356,Vlašim,49.700474444444446,14.897585277777777,0
55360,Ktová,50.52795277777778,15.24772111111111,0
55366,Znosim,49.69970138888888,14.869475000000001,0
55369,Třebívlice,50.457708888888895,13.90820138888889,0
55370,Semínova Lhota,50.51797361111111,15.280959166666667,0
55379,Podsedice,50.46935722222222,13.956743888888889,0
55380,Jivany,50.51369944444444,15.298873888888888,0
55390,Libuň,50.49015111111111,15.302956388888889,0
55391,Libuň zastávka,50.50015055555556,15.300554166666668,0
55399,Třebenice,50.47398722222223,14.00071611111111,0
55400,Jinolice,50.47898305555556,15.335155555555556,0
55409,Dlažkovice,50.466681666666666,13.968168333333333,0
55410,Železnice,50.46234333333334,15.375879722222223,0
55413,Třemošnice,49.871966388888886,15.576590277777777,0
55416,Čtyřkoly,49.86881611111111,14.714491944444443,0
55419,Třebenice město,50.481519444444444,13.98605972222222,0
55420,Jičín,50.43067388888888,15.361318333333333,0
55423,Žlebské Chvalovice,49.883429166666666,15.55564638888889,0
55429,Čížkovice,50.48360861111111,14.039437777777778,0
55430,Jičín zastávka,50.45057055555556,15.380962777777778,0
55433,Ronov nad Doubravou zastávka,49.892631944444446,15.543451666666666,0
55439,Sulejovice,50.4994425,14.036021666666667,0
55443,Ronov nad Doubravou,49.89484083333333,15.52821638888889,0
55449,Libochovice,50.410469722222224,14.054923055555557,0
55453,Závratec,49.877271666666665,15.5625525,0
55459,Dubany,50.39873444444444,14.012592777777778,0
55464,Žleby zastávka,49.894307222222224,15.489938333333333,0
55469,Chotěšov pod Hazmburkem,50.44201888888889,14.07033388888889,0
55474,Žleby,49.89028388888889,15.477323333333333,0
55479,Koštice nad Ohří,50.4004275,13.954122222222221,0
55484,Skovice,49.90573638888889,15.460126666666666,0
55489,Křesín,50.39779055555555,13.981426666666668,0
55499,Libochovice město,50.40754833333333,14.037284722222221,0
55509,Pátek,50.376846111111114,13.936392777777778,0
55510,Butoves,50.38811388888889,15.424915277777778,0
55513,Holice,50.06931027777778,15.992534166666665,0
55520,Vitiněves,50.39926305555556,15.380761111111111,0
55526,Praha-Komořany,49.990522500000004,14.404355277777778,0
55529,Slatina pod Hazmburkem,50.42988944444444,14.060908333333334,0
55530,Kovač,50.39230555555555,15.46953361111111,0
55533,Roveň,50.028895,15.969495277777778,0
55536,Praha-Zbraslav,49.970623333333336,14.39974111111111,0
55539,Slavětín nad Ohří,50.36035305555556,13.900690277777779,0
55540,Ostroměř,50.36897972222222,15.544639166666666,0
55543,Platěnice,50.00893416666667,15.961418888888888,0
55546,Vrané nad Vltavou,49.93855583333333,14.381120555555556,0
55549,Úpohlavy,50.46579944444445,14.037605277777777,0
55550,Vojice,50.38445111111111,15.497915277777777,0
55553,Chrudim město,49.95770805555556,15.793893333333333,0
55556,Dolní Břežany-Jarov,49.94717305555555,14.396928611111111,0
55560,Sobčice,50.375351944444446,15.518713333333334,0
55563,Vejvanovice,49.97301916666667,15.873126666666668,0
55573,Úhřetice,49.97744027777778,15.862250555555555,0
55576,Měchenice,49.91091333333333,14.38387611111111,0
55580,Hořice v Podkrkonoší,50.35622027777778,15.634598888888888,0
55583,Tuněchody,49.974448055555555,15.849748333333334,0
55586,Klínec,49.89678472222222,14.359593888888888,0
55590,Dobrá Voda u Hořic,50.345911944444445,15.609745,0
55596,Čisovice,49.85822111111111,14.319553333333333,0
55600,Třebovětice,50.32724055555556,15.703949166666666,0
55606,Bojov,49.880431944444446,14.348744444444446,0
55609,Děčín-Prostřední Žleb,50.79360138888889,14.230629722222222,0
55610,Jeřice,50.34283472222222,15.676634166666666,0
55613,Hrochův Týnec,49.966375,15.908229444444444,0
55616,Bojanovice,49.86804444444444,14.345563333333335,0
55619,Děčín-Čertova Voda,50.817643888888895,14.221310833333334,0
55620,Cerekvice nad Bystřicí,50.32561194444445,15.716693333333334,0
55623,Bořice,49.980427500000005,15.922264722222222,0
55626,Rymaně,49.85720638888889,14.281617500000001,0
55629,Děčín-Přípeř,50.78487277777778,14.209071111111111,0
55630,Sadová,50.295406944444444,15.693807222222222,0
55636,Mníšek pod Brdy,49.85380111111111,14.269770833333334,0
55639,Dolní Žleb,50.84655416666667,14.215086388888889,0
55640,Hněvčeves,50.31256388888889,15.721829444444445,0
55646,Dobříš,49.78990916666667,14.1833875,0
55649,Dolní Žleb zastávka,50.837223055555555,14.223397222222223,0
55650,Dohalice,50.282961666666665,15.695811944444445,0
55656,Nová Ves pod Pleší,49.82741333333334,14.270082500000001,0
55659,Děčín hl.n.,50.77347722222222,14.201046111111111,0
55660,Všestary,50.25271055555555,15.76433138888889,0
55666,Malá Hraštice,49.809495,14.268728611111111,0
55670,Dlouhé Dvory,50.261717777777775,15.7258875,0
55676,Mokrovraty,49.796545277777774,14.236442777777777,0
55680,Plotiště nad Labem,50.23493361111111,15.792625,0
55686,Stará Huť,49.785243888888886,14.199179166666667,0
55689,Děčín východ,50.77502361111111,14.223348333333334,0
55690,Libáň,50.35646138888889,15.215432499999999,0
55696,Davle,49.88760138888889,14.39855111111111,0
55700,Ledkov,50.344385555555554,15.23581111111111,0
55703,Jeníkovice,49.980885,15.656316944444445,0
55709,Děčín zastávka,50.772792777777774,14.193203888888888,0
55710,Dětenice,50.372975555555556,15.175276666666665,0
55713,Heřmanův Městec,49.95165916666667,15.658394166666668,0
55716,Petrov-Chlomek,49.87662638888889,14.410555277777778,0
55720,Osenice,50.369640277777776,15.163159444444444,0
55723,Valy u Přelouče zastávka,50.03072777777778,15.613962777777777,0
55726,Petrov u Prahy,49.87935138888889,14.428519999999999,0
55730,Rokytňany,50.368005555555555,15.133890277777777,0
55733,Veselí u Přelouče,50.01673833333333,15.623355833333333,0
55736,Jílové u Prahy,49.878025,14.499972777777778,0
55739,Dobkovice,50.71597666666667,14.191384166666667,0
55740,Rabakov,50.38077444444445,15.10492111111111,0
55746,Luka pod Medníkem,49.865859444444446,14.46172611111111,0
55749,Choratice,50.72383916666667,14.186080277777778,0
55756,Kamenný Přívoz,49.866969166666664,14.516925555555556,0
55759,Vilsnice,50.747188055555554,14.180895277777777,0
55766,Krhanice,49.84888,14.553263611111111,0
55769,Povrly,50.67071027777777,14.15720861111111,0
55776,Prosečnice,49.86380611111111,14.532468611111112,0
55779,Neštědice,50.67026555555555,14.139868888888888,0
55780,Lomnice nad Popelkou,50.52684055555555,15.374427222222224,0
55786,Týnec nad Sázavou,49.83410138888889,14.59286,0
55789,Povrly-Roztoky,50.687565,14.187627777777777,0
55790,Ústí u Staré Paky,50.51622972222222,15.457439166666665,0
55796,Chrást nad Sázavou,49.83963444444445,14.576958611111111,0
55799,Neštěmice,50.67265194444444,14.106951666666665,0
55800,Syřenov,50.51348111111111,15.436780277777778,0
55806,Pecerady,49.83363027777778,14.625816666666667,0
55809,Mojžíř,50.67852666666666,14.126577777777777,0
55810,Nová Ves nad Popelkou,50.51891638888889,15.407959722222223,0
55813,Humpolec,49.53488194444444,15.348201111111111,0
55816,Poříčí nad Sázavou-Svárov,49.841748611111115,14.6520875,0
55819,Prackovice nad Labem,50.572610555555556,14.036378333333333,0
55820,Ploužnice,50.514222777777775,15.386788888888889,0
55823,Plačkov,49.529063055555554,15.398671944444445,0
55829,Dolní Zálezly,50.596877500000005,14.048233055555555,0
55830,Kyje u Jičína,50.49995694444445,15.376100555555556,0
55833,Kamenice u Humpolce,49.52428,15.435504166666666,0
55839,Litochovice nad Labem,50.558616944444445,14.0333525,0
55840,Cidlina,50.500771944444445,15.336775000000001,0
55843,Herálec,49.5254275,15.473126111111112,0
55850,Kněžnice,50.492871111111114,15.320257222222223,0
55853,Radňov,49.54750527777777,15.509647222222222,0
55859,Lovosice,50.509483055555556,14.059499722222222,0
55860,Mladějov v Čechách,50.48097333333334,15.226375555555556,0
55863,Slavníč,49.52072694444444,15.456074999999998,0
55870,Hrdoňovice,50.490410000000004,15.264439444444445,0
55879,Lovosice město,50.52121666666667,14.044981388888889,0
55880,Sobotka,50.46545305555556,15.167953888888889,0
55889,Lovosice zastávka,50.519488055555556,14.04243138888889,0
55890,Malechovice,50.49341722222222,15.18741138888889,0
55899,Malé Žernoseky,50.53816305555555,14.056568333333335,0
55900,Libošovice,50.486090833333336,15.163509166666667,0
55901,Řítonice,50.40710111111111,15.110222222222221,0
55906,Plužiny,49.87845472222222,14.875183333333334,0
55909,Bohušovice nad Ohří,50.49134055555556,14.14911611111111,0
55911,Dolní Bousov,50.441561666666665,15.132333888888889,0
55916,Samechov,49.88612861111111,14.835155555555556,0
55919,Hrdly,50.48513055555556,14.174264166666665,0
55921,Domousnice,50.39708944444445,15.105618333333332,0
55926,Hvězdonice,49.872413333333334,14.772020000000001,0
55929,Lukavec,50.50276916666667,14.093325555555555,0
55931,Obrubce,50.44647888888888,15.073488055555556,0
55936,Chocerady,49.86969888888889,14.80558277777778,0
55939,Nové Kopisty,50.49744194444445,14.11936388888889,0
55941,Březno u Mladé Boleslavi,50.41356888888889,15.005461111111112,0
55946,Vlkovec,49.87481555555556,14.814289166666667,0
55949,Hrobce,50.459877777777784,14.228967222222222,0
55951,Bechov,50.436142499999995,15.085260277777778,0
55956,Stříbrná Skalice,49.883316944444445,14.857175833333333,0
55959,Oleško,50.47775722222222,14.194079166666667,0
55961,Dlouhá Lhota,50.42108833333333,15.039375277777777,0
55966,Sázava,49.87517916666667,14.906240833333333,0
55971,Kolomuty,50.40662361111111,14.97792,0
55976,Sázava zastávka,49.86920694444444,14.893207499999999,0
55981,Řepov,50.406910277777776,14.95556611111111,0
55986,Samopše,49.86092027777778,14.9163975,0
55991,Mladá Boleslav město,50.418815277777774,14.91756111111111,0
56006,Ledečko,49.847343055555555,14.932248055555554,0
56009,Boletice nad Labem,50.733739444444446,14.187861388888889,0
56011,Skalsko,50.432162777777776,14.755488611111112,0
56016,Rataje nad Sázavou zastávka,49.84449388888889,14.947982777777778,0
56019,Děčín-Staré Město,50.76651916666667,14.214674444444444,0
56021,Rohatsko,50.437104999999995,15.107403611111112,0
56026,Rataje nad Sázavou-Ivaň,49.839959722222225,14.941504166666666,0
56031,Bukovno,50.44340361111111,14.833327777777777,0
56036,Malovidy,49.82206888888889,14.93158361111111,0
56039,Křešice u Děčína,50.75704694444445,14.20416611111111,0
56041,Líny,50.446147777777774,14.810376111111111,0
56046,Český Šternberk,49.81361861111111,14.935552222222222,0
56051,Katusice,50.44283833333333,14.777056111111111,0
56056,Český Šternberk zastávka,49.80855583333333,14.929768888888889,0
56059,Velké Březno,50.66424444444444,14.146279166666666,0
56061,Sudoměř u Mladé Boleslavi,50.43790833333333,14.744697222222221,0
56066,Kácov,49.78687055555555,15.018535,0
56071,Trnová,50.44459111111111,14.718814166666666,0
56076,Soběšín,49.789718888888885,14.959406111111111,0
56081,Vrátno,50.44309888888888,14.686744444444445,0
56086,Vranice,49.78986416666667,14.986304722222222,0
56091,Mšeno,50.435782499999995,14.640801111111111,0
56096,Kácov zastávka,49.775795,15.030935000000001,0
56101,Skramouš,50.442925555555554,14.664317777777779,0
56106,Střechov nad Sázavou,49.76027,15.021956666666668,0
56111,Kanina,50.41575638888889,14.614800833333334,0
56116,Čížov,49.75200777777778,15.048625833333332,0
56119,Malé Březno nad Labem,50.67170194444444,14.168386666666667,0
56121,Živonín,50.394103333333334,14.613013888888888,0
56126,Chabeřice,49.749518333333334,15.062667222222222,0
56131,Nebužely,50.38623222222222,14.589646111111112,0
56136,Zruč nad Sázavou,49.738455,15.103986388888888,0
56141,Lhotka u Mělníka,50.382107222222224,14.541869166666666,0
56146,Zruč nad Sázavou zastávka,49.74293527777778,15.085516944444445,0
56149,Svádov,50.663242777777775,14.103544166666666,0
56151,Lhotka u Mělníka zastávka,50.373467777777776,14.550912222222223,0
56156,Horka nad Sázavou,49.73883527777778,15.128820277777779,0
56159,Těchlovice,50.69981388888888,14.203144444444444,0
56161,Hleďsebe,50.363751666666666,14.562469722222223,0
56166,Laziště,49.729689722222226,15.1591275,0
56171,Mělnická Vrutice,50.34429611111111,14.546495555555556,0
56176,Vlastějovice,49.72879972222223,15.171925277777778,0
56179,Valtířov,50.67244861111111,14.122122222222222,0
56181,Velký Borek,50.346632222222226,14.515763055555556,0
56186,Budčice,49.72239472222223,15.18463,0
56191,Dobrovice,50.35554805555556,14.939515833333333,0
56195,Ledeč nad Sázavou,49.697917222222216,15.270418333333334,0
56199,Česká Lípa-Holý vrch,50.682378888888884,14.522887222222224,0
56201,Nepřevázka,50.37412972222222,14.911337222222222,0
56205,Chřenovice,49.71227638888889,15.194655833333334,0
56209,Benešov nad Ploučnicí,50.73830111111111,14.30511,0
56211,Voděrady,50.336538611111116,14.947244166666668,0
56215,Chřenovice-Podhradí,49.70778305555556,15.235228333333332,0
56219,Březiny u Děčína,50.7610475,14.24363861111111,0
56225,Horní Ledeč,49.69594194444444,15.283392777777777,0
56226,Hodkov zastávka,49.77767111111111,15.154049166666667,0
56229,Malá Veleň,50.74225055555556,14.272523055555556,0
56231,Čachovice,50.272375555555556,14.948893055555557,0
56235,Vilémovice,49.684533055555555,15.308968055555557,0
56236,Štipoklasy,49.82794611111112,15.207744444444444,0
56239,Františkov nad Ploučnicí,50.72400833333334,14.331800833333332,0
56241,Všejany,50.25695972222222,14.957698055555555,0
56245,Stvořidla,49.67042277777777,15.319525555555556,0
56246,Předbořice,49.855447777777776,15.224351111111112,0
56249,Horní Police,50.70612972222222,14.40004,0
56255,Smrčná,49.66063416666667,15.349092222222223,0
56256,Krasoňovice,49.87730861111111,15.224461666666667,0
56259,Starý Šachov,50.72075944444445,14.374828055555556,0
56261,Křinec,50.26600305555556,15.143617222222222,0
56266,Zbraslavice,49.815572777777774,15.18871888888889,0
56269,Stružnice,50.69831222222222,14.4499075,0
56271,Rožďalovice,50.29917138888889,15.180312777777777,0
56276,Želivec,49.75524083333333,15.140912222222221,0
56279,Markvartice,50.772329166666665,14.346352777777778,0
56281,Ledečky,50.28420361111111,15.186006944444445,0
56286,Hodkov,49.78567111111111,15.163787222222222,0
56289,Dolní Habartice,50.750190277777776,14.335822222222223,0
56290,Mlýnec,50.31767000000001,15.220739444444444,0
56291,Jíkev,50.23915027777778,15.051819444444446,0
56296,Černíny,49.84083305555556,15.215936944444444,0
56299,Česká Kamenice,50.795835277777776,14.414013055555555,0
56300,Kopidlno,50.33396583333334,15.260438055555555,0
56301,Oskořínek,50.24166888888889,15.086067222222223,0
56305,Týniště,49.88605555555556,15.235335555555555,0
56306,Malešov,49.90728416666666,15.230925000000001,0
56309,Horní Kamenice,50.799438333333335,14.4364225,0
56310,Pševes,50.345217500000004,15.295628888888888,0
56319,Veselé pod Rabštejnem,50.794421666666665,14.362776944444445,0
56320,Žitětín,50.36111722222223,15.324574722222222,0
56326,Bahno,49.865367500000005,15.220564166666668,0
56329,Kamenický Šenov,50.78094166666666,14.468154444444444,0
56330,Jičíněves,50.37390305555556,15.336607500000001,0
56336,Bykáň,49.891645555555556,15.24006722222222,0
56339,Žandov,50.71205777777778,14.389815555555556,0
56340,Nemyčeves,50.38727166666666,15.360486666666667,0
56346,Kutná Hora město,49.94988416666666,15.277333333333335,0
56350,Staré Místo u Jičína,50.40607,15.353003055555556,0
56356,Kutná Hora-Poličany,49.923698055555555,15.258538333333334,0
56360,Bartoušov zastávka,50.355045833333335,15.311130277777778,0
56361,Městec Králové,50.21064638888889,15.300215833333334,0
56366,Kutná Hora-Vrchlice,49.937239166666664,15.267727222222224,0
56376,Kutná Hora-Sedlec,49.95764527777778,15.2903275,0
56386,Uhlířské Janovice,49.88229833333333,15.059906111111111,0
56390,Zachrašťany,50.21427722222222,15.489861944444444,0
56396,Rataje nad Sázavou,49.84371277777778,14.950816388888889,0
56401,Běrunice,50.185946666666666,15.341245555555556,0
56406,Rataje nad Sázavou předměstí,49.84966638888889,14.97841388888889,0
56410,Slibovice,50.17508972222222,15.366709722222224,0
56416,Mirošovice u Rataj nad Sázavou,49.86032,15.004793055555556,0
56419,Mlýny,50.81143055555555,14.498225555555555,0
56420,Lovčice obec,50.17043916666666,15.382320833333333,0
56426,Mitrov,49.86576111111111,15.0484225,0
56429,Kytlice,50.814609999999995,14.532540555555556,0
56430,Nový Bydžov,50.24486861111111,15.48584111111111,0
56436,Chmeliště,49.89578638888889,15.056298333333334,0
56440,Luková,50.19002361111111,15.486915,0
56446,Hatě,49.91388194444444,15.058014444444446,0
56450,Skřivany,50.27193222222222,15.498795833333332,0
56456,Bečváry,49.95599555555556,15.071100555555555,0
56459,Rumburk,50.95683972222223,14.550704722222223,0
56460,Smidary,50.29504361111111,15.495484444444443,0
56466,Drahobudice,49.93653472222222,15.062511944444445,0
56469,Brtníky,50.951840833333335,14.4386175,0
56470,Ohnišťany,50.333623888888894,15.507031944444444,0
56476,Ratboř,49.98149194444445,15.160285277777778,0
56479,Dolní Křečany,50.95638166666667,14.518707500000001,0
56480,Lázně Bělohrad,50.426225555555554,15.577270555555556,0
56486,Pučery,49.967373333333335,15.106044722222222,0
56489,Panský,50.94862722222222,14.461883055555555,0
56490,Šárovcova Lhota,50.40787472222222,15.561105000000001,0
56496,Chotouchov,49.970418888888894,15.12112138888889,0
56500,Horní Nová Ves,50.450405,15.572249722222223,0
56506,Kořenice,49.973108611111115,15.138428611111111,0
56516,Červené Pečky,49.98799,15.207026388888888,0
56519,Staré Křečany,50.94771944444444,14.492045,0
56529,Dolní Poustevna,50.9834375,14.28318027777778,0
56536,Kouřim,50.00557833333333,14.98777361111111,0
56539,Horní Poustevna,50.9969175,14.300964166666667,0
56546,Bošice,50.01530805555556,15.015267777777778,0
56549,Mikulášovice dolní nádraží,50.98430805555556,14.336897777777779,0
56552,Malá Skála,50.63401361111111,15.192099444444445,0
56559,Mikulášovice horní nádraží,50.95643166666667,14.390146111111111,0
56562,Dolánky,50.603857222222224,15.17119361111111,0
56569,Mikulášovice střed,50.96240944444445,14.357483888888888,0
56572,Líšný,50.64724,15.212257777777777,0
56576,Zalešany,50.034955833333335,15.008451388888888,0
56579,Vilémov u Šluknova,50.99214777777778,14.3212075,0
56580,Semonice,50.33159555555556,15.877395277777778,0
56582,Železný Brod,50.63997555555556,15.265215,0
56586,Plaňany,50.0493325,15.016054166666667,0
56589,Velký Šenov,50.99324111111111,14.380075555555557,0
56590,Semily,50.603475,15.324,0
56596,Žabonosy,50.03969138888889,15.024313055555556,0
56599,Lipová u Šluknova,50.994644722222226,14.358185555555556,0
56600,Nedvězí,50.58418416666667,15.352067777777778,0
56606,Plaňany zastávka,50.04546666666666,15.024163611111112,0
56609,Velký Šenov zastávka,51.004735,14.393962222222221,0
56610,Košťálov,50.568825555555556,15.4036525,0
56616,Vrbčany,50.05474805555555,15.000265,0
56619,Šluknov,51.006395833333336,14.461761944444444,0
56620,Libštát,50.55634083333333,15.417314444444443,0
56626,Chroustov,50.06500361111111,14.997173888888888,0
56630,Bělá u Staré Paky,50.5326725,15.442429444444445,0
56639,Šluknov zastávka,51.00676138888889,14.435525277777778,0
56640,Stará Paka,50.51593833333333,15.486651388888887,0
56649,Valdek,50.981276388888894,14.507079166666667,0
56650,Levínská Olešnice,50.524343888888886,15.530825277777778,0
56659,Krásná Lípa,50.91906722222222,14.51217138888889,0
56660,Bělá u Staré Paky zastávka,50.53382861111111,15.445697222222222,0
56669,Krásná Lípa město,50.907131666666665,14.512096666666666,0
56670,Nová Paka,50.48666388888889,15.523029166666667,0
56679,Zahrady u Rumburka,50.93400611111111,14.482141944444445,0
56680,Nová Paka město,50.49461222222222,15.51259138888889,0
56689,Varnsdorf,50.903193888888886,14.638646944444444,0
56690,Horka u Staré Paky,50.52660361111111,15.570460833333334,0
56699,Dolní Podluží,50.886316944444445,14.620603333333333,0
56700,Borovnice,50.509260833333336,15.604476666666667,0
56709,Varnsdorf staré nádraží,50.90953138888889,14.612588055555555,0
56710,Mostek,50.491214444444445,15.692227777777777,0
56719,Rybniště,50.88307138888889,14.509846111111111,0
56720,Borovnička,50.50002194444444,15.659078333333333,0
56729,Horní Podluží,50.88297722222222,14.556999722222223,0
56730,Bílá Třemešná,50.45192388888889,15.732988888888888,0
56739,Jiřetín pod Jedlovou,50.88305166666667,14.580815,0
56740,Dvůr Králové nad Labem,50.413715277777776,15.798267222222222,0
56749,Chřibská,50.867804444444445,14.523713611111113,0
56750,Žireč,50.4032925,15.848134444444446,0
56759,Jedlová,50.84275277777778,14.570393888888889,0
56760,Kuks,50.39594,15.884385,0
56769,Nová Huť v Lužických horách,50.83072333333334,14.585863055555556,0
56770,Jaroměř,50.34176305555556,15.909975555555556,0
56779,Svor,50.79053694444444,14.592491111111112,0
56780,Jaroměř zastávka,50.35709722222222,15.911325555555555,0
56789,Nový Bor,50.76065138888889,14.547311666666667,0
56790,Rychnovek,50.360733333333336,15.9691625,0
56799,Skalice u České Lípy,50.74158972222222,14.521573333333334,0
56800,Smiřice,50.30040833333333,15.858168611111111,0
56809,Česká Lípa hl.n.,50.67536166666667,14.533183333333334,0
56810,Černožice,50.31547555555555,15.8695775,0
56829,Česká Lípa střelnice,50.691676666666666,14.533176666666668,0
56839,Jestřebí,50.614151944444444,14.600277499999999,0
56849,Srní u České Lípy,50.636966944444445,14.58445,0
56859,Doksy,50.57362888888889,14.646915833333333,0
56860,Předměřice nad Labem,50.25265527777778,15.817804166666667,0
56869,Staré Splavy,50.58692805555556,14.629616666666667,0
56870,Lochenice,50.272925,15.82453861111111,0
56879,Okna,50.52723888888889,14.674445277777778,0
56880,Opatovice nad Labem-Pohřebačka,50.16544527777778,15.7888975,0
56889,Bezděz,50.51607527777778,14.729457777777778,0
56890,Stéblová,50.10440444444445,15.757641111111111,0
56893,Stéblová obec,50.09315055555556,15.752508333333333,0
56898,Bělá pod Bezdězem,50.488327222222225,14.83589888888889,0
56900,Čeperka,50.13140611111111,15.769945555555557,0
56908,Bělá pod Bezdězem město,50.4933325,14.78721611111111,0
56910,Roztoky u Jilemnice,50.55462333333333,15.490029444444444,0
56918,Bělá pod Bezdězem zastávka,50.500163055555554,14.868562777777779,0
56920,Tample,50.54599777777778,15.465066944444443,0
56928,Malá Bělá,50.48699,14.922795277777777,0
56930,Martinice v Krkonoších,50.58069638888889,15.541090555555556,0
56940,Kunčice nad Labem,50.58386333333333,15.622826944444444,0
56950,Horní Branná,50.59673138888889,15.586942500000001,0
56960,Klášterská Lhota,50.55860972222222,15.660735,0
56970,Hostinné,50.536699722222224,15.737860555555555,0
56971,Hostinné město,50.53920027777777,15.72020388888889,0
56980,Prosečné,50.5474775,15.69631888888889,0
56990,Chotěvice,50.51897972222222,15.7598925,0
56999,Lovosice závod,50.51056805555555,14.081237222222223,0
57000,Pilníkov,50.53418361111111,15.812866666666668,0
57009,Žalhostice,50.52488638888889,14.096545277777778,0
57010,Vlčice,50.546665,15.834377222222223,0
57016,Praha-Braník,50.02787305555555,14.406890833333334,0
57019,Litoměřice horní nádraží,50.54101333333333,14.131518055555556,0
57020,Trutnov hl.n.,50.56525055555555,15.9109475,0
57027,Praha-Podbaba,50.11224555555556,14.395739166666667,0
57029,Ploskovice,50.54984861111111,14.205892222222221,0
57036,Praha-Bubny,50.10237638888889,14.4392575,0
57037,Praha-Výstaviště,50.10336,14.429781388888888,0
57039,Liběšice,50.572075000000005,14.284995555555556,0
57040,Trutnov střed,50.57781361111111,15.9451525,0
57049,Horní Řepčice,50.557381944444444,14.265514166666666,0
57050,Trutnov zastávka,50.57783861111111,15.961051944444444,0
57059,Úštěk,50.585506111111116,14.335060833333333,0
57066,Praha-Dejvice,50.096874444444445,14.399502777777776,0
57069,Dubičná,50.60994055555555,14.359516666666666,0
57070,Petříkovice,50.60173138888889,16.003263333333333,0
57076,Praha hl.n.,50.082638888888894,14.435470555555556,0
57086,Praha-Hlubočepy,50.04055583333333,14.394124166666666,0
57089,Blíževedly,50.613445,14.395510555555555,0
57090,Libeč,50.59639,15.946263055555557,0
57096,Praha-Hostivař,50.05511222222222,14.53581611111111,0
57099,Kravaře v Čechách,50.62896555555555,14.404494444444445,0
57100,Trutnov-Volanov,50.56092861111111,15.887548333333333,0
57107,Praha-Jinonice,50.05568583333333,14.371733888888889,0
57109,Zahrádky u České Lípy,50.63726416666667,14.506160277777777,0
57110,Rokytnice nad Jizerou,50.71216944444445,15.4228425,0
57116,Praha-Cibulka,50.064595555555556,14.361947777777777,0
57119,Stvolínky,50.629736944444446,14.437606111111112,0
57120,Jablonec nad Jizerou,50.700406388888894,15.435207222222223,0
57130,Jablonec nad Jizerou-Hradsko,50.680653888888884,15.45128861111111,0
57139,Zákupy-Božíkov,50.67870722222222,14.649918611111111,0
57140,Poniklá zastávka,50.66674638888889,15.451042777777777,0
57146,Praha-Stodůlky,50.06220111111111,14.346126111111111,0
57150,Poniklá,50.64864083333333,15.456993888888888,0
57156,Praha-Krč,50.03402194444444,14.44613111111111,0
57159,Vlčí Důl-Dobranov,50.6713125,14.607563055555556,0
57160,Jilemnice,50.60440527777778,15.51378388888889,0
57169,Mimoň,50.658006111111106,14.71458611111111,0
57170,Horní Sytová,50.63233388888889,15.46186722222222,0
57176,Praha-Libeň,50.10080638888889,14.501391666666667,0
57179,Pertoltice pod Ralskem,50.67764111111111,14.718118888888888,0
57180,Víchová nad Jizerou,50.62717555555555,15.484002222222221,0
57189,Velký Grunov,50.69859388888889,14.728418055555556,0
57190,Hrabačov,50.62322833333334,15.501229166666667,0
57199,Brniště,50.716591111111114,14.728751944444445,0
57200,Vrchlabí,50.61877833333333,15.622771111111112,0
57206,Praha-Ruzyně,50.08394416666667,14.310290555555556,0
57209,Jablonné v Podještědí,50.76942555555556,14.758138333333333,0
57210,Podhůří,50.60066388888889,15.624705,0
57219,Trnovany u Litoměřic,50.543412777777775,14.176344166666667,0
57220,Svoboda nad Úpou,50.62184,15.820367777777777,0
57226,Praha-Smíchov,50.0611125,14.408043611111111,0
57229,Velký Valtinov,50.74269527777778,14.733406388888888,0
57230,Mladé Buky,50.60704166666667,15.841129444444444,0
57236,Praha Masarykovo nádraží,50.087650555555555,14.4347075,0
57250,Trutnov-Staré město,50.5909575,15.8818075,0
57256,Praha-Holešovice,50.11063583333333,14.439706388888888,0
57261,Praha-Eden,50.06576027777778,14.472084444444445,0
57266,Praha-Veleslavín,50.09503055555556,14.346275833333333,0
57276,Praha-Vršovice,50.06464472222222,14.447736944444445,0
57279,Praha-Zahradní Město,50.06229638888889,14.503407222222222,0
57280,Královec,50.673162777777776,15.970510833333334,0
57287,Praha-Kačerov,50.04233472222222,14.462985277777777,0
57290,Trutnov-Zelená Louka,50.58079777777778,15.8882575,0
57300,Bernartice u Trutnova,50.64711805555555,15.958764722222222,0
57310,Křenov,50.63821611111111,15.935731944444445,0
57316,Praha-Vysočany,50.11225388888889,14.497600277777776,0
57319,Litoměřice Cihelna,50.53701944444444,14.118161944444445,0
57320,Radvanice,50.575336944444444,16.06006277777778,0
57330,Chvaleč,50.59934944444445,16.03798027777778,0
57336,Praha-Čakovice,50.14891,14.519433888888889,0
57340,Janovice u Trutnova,50.58700527777778,16.08477472222222,0
57346,Praha-Horní Měcholupy,50.047977777777774,14.565636944444446,0
57350,Adršpach,50.61545,16.124248333333334,0
57356,Praha-Kbely,50.13493944444444,14.55586777777778,0
57360,Hodkovice u Trutnova,50.604707777777776,16.071981944444445,0
57366,Praha-Kyje,50.09746861111111,14.543305555555555,0
57370,Horní Adršpach,50.6231625,16.08310472222222,0
57380,Teplice nad Metují skály,50.59690916666667,16.149642222222223,0
57386,Praha-Modřany zastávka,50.0039125,14.403006944444444,0
57390,Teplice nad Metují město,50.592822222222225,16.1723475,0
57396,Praha-Velká Chuchle,50.00720805555556,14.388233055555554,0
57410,Malé Svatoňovice,50.52966472222222,16.0506275,0
57420,Suchovršice,50.53244888888889,16.005528333333334,0
57430,Velké Svatoňovice,50.540211944444444,16.022010277777778,0
57440,Rtyně v Podkrkonoší,50.515659166666666,16.073125833333332,0
57450,Červený Kostelec,50.483738055555555,16.07541972222222,0
57460,Rtyně v Podkrkonoší zastávka,50.49955361111111,16.091095277777775,0
57470,Olešnice,50.45749222222223,16.084238888888887,0
57480,Starkoč,50.41111166666666,16.10077138888889,0
57500,Česká Skalice,50.395540277777776,16.054034722222223,0
57522,Hrádek nad Nisou,50.85576833333334,14.846638333333335,0
57542,Chotyně,50.83806472222223,14.869992222222223,0
57552,Chrastava,50.81330666666666,14.95216,0
57562,Bílý Kostel nad Nisou,50.82115055555556,14.9185675,0
57572,Chrastava-Andělská Hora,50.79714111111111,14.958050277777778,0
57582,Machnín hrad,50.78762694444444,14.972135555555555,0
57592,Machnín,50.78737583333333,14.984308888888888,0
57600,Pardubice-Semtín,50.061907777777776,15.748195555555554,0
58000,Čáslav m.n.,49.915545277777774,15.395981944444443,0
58219,Chomutov město,50.46980333333334,13.41369888888889,0
58316,Skochovice,49.92099555555556,14.377726111111112,0
73005,Aš,50.20896194444445,12.1999425,0
73014,Dobrá Voda u Březnice,49.55612305555555,13.99929472222222,0
73015,Aš město,50.21892777777778,12.183506944444444,0
73022,Mirovice,49.50991055555556,14.034329166666666,0
73025,Aš předměstí,50.22926666666667,12.174172222222222,0
73032,Myslín,49.52867277777778,14.024873333333334,0
73035,Štítary,50.24326,12.155810833333334,0
73042,Čimelice,49.47022027777778,14.076704722222223,0
73045,Podhradí,50.252941666666665,12.176244166666667,0
73052,Smetanova Lhota,49.44580305555555,14.081789444444444,0
73055,Studánka,50.277610277777775,12.176838888888888,0
73062,Dolní Ostrovec,49.4139,14.113075833333333,0
73065,Hranice v Čechách,50.30205722222222,12.181993888888888,0
73072,Vráž u Písku,49.391906666666664,14.124607222222222,0
73074,Beroun,49.95697972222222,14.075824722222222,0
73082,Čížová,49.35358388888889,14.097721388888889,0
73084,Králův Dvůr,49.94289527777777,14.040487777777777,0
73092,Písek zastávka,49.31260416666667,14.136038888888889,0
73094,Králův Dvůr-Popovice,49.92820361111111,14.020346944444444,0
73095,Vojtanov obec,50.16224333333333,12.313156666666668,0
73102,Horní Nerestce,49.4978525,14.056698611111111,0
73104,Zdice,49.907758055555554,13.9795125,0
73114,Stašov,49.88605777777778,13.959603888888887,0
73122,Heřmaň,49.2442575,14.140063333333332,0
73124,Praskolesy,49.86889861111111,13.929776666666665,0
73134,Hořovice,49.84338944444445,13.899316944444443,0
73141,Hudčice,49.527748055555556,13.928795833333332,0
73144,Cerhovice,49.83668,13.836753611111112,0
73151,Slavětín u Březnice,49.5232625,13.895188333333333,0
73160,Kařez,49.82216888888889,13.778899444444445,0
73162,Bělčice,49.50409777777778,13.886011111111111,0
73165,Kařízek,49.80079194444444,13.767871111111113,0
73172,Závišín,49.48057305555556,13.870249444444445,0
73175,Mýto,49.78348611111111,13.7403325,0
73182,Bezdědovice,49.44507888888889,13.87571,0
73185,Holoubkov,49.77400083333333,13.700040833333333,0
73192,Mačkov,49.40152138888889,13.886039166666666,0
73195,Svojkovice,49.75505472222222,13.655806944444445,0
73202,Sedlice,49.38460666666666,13.936515833333333,0
73205,Rokycany,49.740004722222224,13.59245138888889,0
73212,Sedlice město,49.37822305555556,13.944585555555555,0
73215,Klabava,49.74913611111111,13.538136944444444,0
73222,Rojice,49.34833916666667,13.950253333333333,0
73225,Ejpovice,49.751575277777775,13.511726388888889,0
73232,Velká Turná,49.336846944444446,13.9568075,0
73235,Dýšina-Horomyslice,49.76802,13.504239444444444,0
73242,Radomyšl,49.320238055555556,13.948527222222223,0
73245,Chrást u Plzně,49.78530694444444,13.497645277777776,0
73252,Radomyšl zastávka,49.31340611111111,13.93266861111111,0
73255,Chrást u Plzně obec,49.7915025,13.49129361111111,0
73262,Domanice,49.300618888888884,13.915618055555555,0
73265,Plzeň-Doubravka,49.758673888888886,13.4162725,0
73272,Řepice,49.27809166666667,13.914017222222222,0
73275,Plzeň hl.n.,49.743540277777775,13.388032777777777,0
73282,České Budějovice,48.97443583333334,14.48880861111111,0
73286,Malměřice,50.11360361111111,13.381370833333333,0
73296,Ležky,50.11916111111111,13.354181666666666,0
73302,Hluboká nad Vltavou,49.03236222222222,14.420316944444444,0
73306,Lubenec,50.12629916666667,13.327972222222222,0
73312,Zliv,49.06545305555555,14.361652777777778,0
73316,Lubenec zastávka,50.129509444444444,13.306895555555556,0
73322,Zbudov,49.0895425,14.326863333333334,0
73326,Libkovice,50.13046527777778,13.269995833333335,0
73332,Dívčice,49.10622277777778,14.301213333333335,0
73335,Chyše,50.11112055555556,13.247894722222222,0
73342,Záblatíčko,49.12497611111111,14.264689722222222,0
73345,Protivec,50.08956138888889,13.207044444444444,0
73352,Číčenice,49.153552499999996,14.221498333333333,0
73355,Záhořice,50.078432222222226,13.193495277777778,0
73362,Milenovice,49.17260777777778,14.22059638888889,0
73365,Žlutice,50.084590000000006,13.159598888888889,0
73372,Protivín zastávka,49.19642361111111,14.222507777777778,0
73375,Borek u Žlutic,50.06776833333333,13.132350833333334,0
73382,Protivín,49.21253027777778,14.21183111111111,0
73385,Štědrá,50.04987055555555,13.119658055555556,0
73392,Skály,49.22372333333333,14.165113611111112,0
73395,Smilov,50.04955861111111,13.050589722222224,0
73402,Heřmaň obec,49.23637194444444,14.13619861111111,0
73405,Luhov,50.034791388888884,13.0292825,0
73412,Ražice,49.244658055555554,14.108320277777777,0
73415,Toužim,50.05058638888889,12.991310833333333,0
73422,Sudoměř u Písku,49.24939027777778,14.056892777777778,0
73425,Poseč,50.03540694444444,12.933076111111111,0
73432,Čejetice,49.25156444444445,14.015706111111111,0
73435,Otročín,50.03908194444444,12.8872125,0
73442,Modlešovice,49.256458055555555,13.976460555555557,0
73445,Dalovice,50.254936944444445,12.886603611111111,0
73452,České Budějovice severní zastávka,48.99478833333333,14.4792875,0
73455,Sadov,50.26776611111111,12.890893055555555,0
73462,Hrdějovice,49.01965555555555,14.482296944444444,0
73465,Sadov-Podlesí,50.27580638888889,12.880523333333334,0
73472,Hosín,49.03498583333333,14.466411944444443,0
73475,Velký Rybník,50.292249999999996,12.875733611111112,0
73482,Hluboká nad Vltavou-Zámostí,49.05069472222222,14.464121388888888,0
73485,Hroznětín,50.30673861111111,12.868626944444445,0
73492,Chotýčany,49.078637500000006,14.529176111111111,0
73495,Hroznětín zastávka,50.313002499999996,12.861416666666667,0
73502,Ševětín,49.09740194444445,14.574549722222223,0
73505,Merklín,50.32681305555556,12.865105555555555,0
73512,Neplachov,49.12578472222222,14.605570555555556,0
73515,Domažlice,49.43509222222222,12.94319861111111,0
73525,Domažlice město,49.435760277777774,12.925168333333334,0
73532,Horusice,49.16716861111111,14.665978888888889,0
73535,Havlovice,49.41656833333333,12.874993611111112,0
73542,Veselí nad Lužnicí zastávka,49.177100277777775,14.695950277777778,0
73545,Pila,49.41459722222222,12.858835833333332,0
73552,Veselí nad Lužnicí,49.193685555555554,14.716761388888889,0
73555,Trhanov,49.42010583333333,12.839543888888889,0
73562,Řípec-Dráchov,49.22451,14.724141944444444,0
73563,Řípec,49.20722388888889,14.732682222222222,0
73565,Klenčí pod Čerchovem,49.43889333333333,12.822550555555555,0
73572,Soběslav,49.25537305555556,14.725941111111112,0
73575,Postřekov,49.45894166666667,12.814779722222223,0
73585,Nový Kramolín,49.477447222222224,12.812637222222223,0
73592,Doubí u Tábora,49.32169916666667,14.719893611111111,0
73595,Hazlov,50.161922777777775,12.279389722222223,0
73596,Vlkanov,49.48651027777778,12.814551666666667,0
73602,Planá nad Lužnicí,49.353946944444445,14.706260555555556,0
73605,Horažďovice,49.32093722222223,13.709911944444444,0
73612,Sezimovo Ústí,49.379601111111114,14.697330000000001,0
73613,Tábor-Čápův Dvůr,49.39307361111111,14.692986388888889,0
73615,Velké Hydčice,49.29841111111111,13.663470555555556,0
73622,Tábor,49.413821388888884,14.677363888888888,0
73625,Žichovice,49.267759999999996,13.617688611111111,0
73632,České Velenice,48.7692675,14.957806666666666,0
73634,Tábor-Měšice,49.40452055555556,14.703835555555555,0
73635,Sušice,49.246767500000004,13.541879722222221,0
73642,Nová Ves nad Lužnicí,48.81189055555555,14.92285472222222,0
73645,Hrádek u Sušice,49.26204611111111,13.490765277777777,0
73652,Dvory nad Lužnicí,48.85533138888889,14.897150277777778,0
73655,Mokrosuky,49.27542972222222,13.467034722222222,0
73662,Hrdlořezy,48.87314083333333,14.879592222222223,0
73665,Kolinec,49.2951925,13.435925000000001,0
73672,Suchdol nad Lužnicí zastávka,48.89219027777778,14.880303333333334,0
73675,Malonice,49.29924944444444,13.367260833333333,0
73676,Myslkovice,49.298609444444445,14.735022777777777,0
73682,Suchdol nad Lužnicí,48.90218222222222,14.882860555555556,0
73685,Nemilkov,49.28485083333333,13.343957222222222,0
73692,Majdalena,48.950586111111114,14.86814888888889,0
73695,Běšiny,49.304485,13.303661111111111,0
73702,Třeboň lázně,49.00730055555555,14.777784444444444,0
73705,Neznašovy,49.32561166666667,13.299607222222223,0
73712,Třeboň,49.01528611111111,14.760737222222222,0
73715,Vrhaveč,49.34925805555556,13.299775555555556,0
73722,Lužnice,49.05367444444444,14.750079444444445,0
73725,Luby u Klatov,49.36444,13.305659722222224,0
73732,Lomnice nad Lužnicí,49.09119611111112,14.730273888888888,0
73735,Klatovy město,49.38607472222222,13.295036111111111,0
73742,Frahelž,49.11857111111111,14.736541666666666,0
73745,Klatovy,49.401470555555555,13.274159722222223,0
73752,Vlkov nad Lužnicí,49.14805444444444,14.728409722222223,0
73755,Bezděkov u Klatov,49.380565833333335,13.236565555555554,0
73762,Vodňany,49.145139444444446,14.180097499999999,0
73765,Janovice nad Úhlavou,49.35264222222222,13.203805833333332,0
73772,Pražák,49.147412777777774,14.140606666666667,0
73775,Dubová Lhota,49.33540888888889,13.177611666666666,0
73782,Svinětice,49.1379775,14.103786388888889,0
73785,Úborsko,49.327623055555556,13.157825,0
73792,Bavorov,49.12641,14.083973333333335,0
73795,Pocinovice,49.346315555555556,13.13562,0
73802,Blanice,49.09642166666667,14.076092222222222,0
73805,Loučim,49.365795,13.115495,0
73812,Strunkovice nad Blanicí,49.081185277777784,14.061267777777779,0
73815,Dobříkov na Šumavě,49.371855000000004,13.088242222222222,0
73822,Husinec,49.04990083333333,14.026353055555557,0
73825,Chodská Lhota,49.36505972222222,13.067536666666667,0
73832,Prachatice,49.015101111111115,14.008706944444445,0
73835,Kdyně,49.38366138888889,13.032418055555556,0
73842,Prachatice lázně,49.006011111111114,13.997630833333332,0
73845,Kout na Šumavě,49.397105833333335,13.012073611111111,0
73852,Rohanov,48.97804305555556,14.038541666666667,0
73855,Spáňov,49.415886666666665,12.98613222222222,0
73862,Chroboly,48.956318888888894,14.055105000000001,0
73865,Horažďovice předměstí,49.331317222222225,13.738921388888889,0
73872,Ovesné u Prachatic,48.94047222222222,14.054200555555557,0
73875,Velký Bor,49.34585055555556,13.700790833333333,0
73882,Skříněřov,48.947084999999994,14.018109444444445,0
73885,Jetenovice,49.370174166666665,13.665420000000001,0
73892,Zbytiny,48.937130277777776,13.976944166666668,0
73895,Pačejov,49.391283055555554,13.620440277777778,0
73896,Kovčín,49.4138625,13.612564166666667,0
73902,Spálenec,48.92619027777778,13.969520555555556,0
73905,Nekvasovy,49.43846222222222,13.610520555555555,0
73912,Volary,48.90709972222222,13.883315833333334,0
73915,Mileč,49.46197083333334,13.608296666666666,0
73922,Dobrá na Šumavě,48.877586666666666,13.861450555555555,0
73925,Nepomuk,49.49747,13.608838888888888,0
73932,Černý Kříž,48.86069,13.861131944444445,0
73935,Srby,49.52462111111111,13.591769166666667,0
73942,Stožec,48.85900222222222,13.820791944444444,0
73945,Ždírec u Plzně,49.55064055555555,13.574083055555555,0
73952,Nové Údolí,48.829370555555556,13.7939,0
73955,Blovice,49.58111055555556,13.53134388888889,0
73962,Majdalena zastávka,48.96483222222223,14.857664166666666,0
73965,Zdemyslice,49.60624555555556,13.517114444444445,0
73975,Šťáhlavy,49.66896972222222,13.5040825,0
73985,Starý Plzenec,49.69524722222222,13.47838638888889,0
73996,Plzeň-Slovany,49.73491416666667,13.407487222222223,0
74005,Františkovy Lázně,50.124364166666666,12.355274999999999,0
74010,Františkovy Lázně-Aquaforum,50.11732611111111,12.359013055555556,0
74015,Žírovice-Seníky,50.14823083333333,12.3356025,0
74025,Vojtanov,50.167468888888884,12.32770111111111,0
74035,Plesná,50.21118805555556,12.344696944444445,0
74055,Chodov,50.231474722222224,12.75365888888889,0
74065,Mírová,50.23957194444444,12.763953333333333,0
74075,Božičany,50.25635611111111,12.77526777777778,0
74085,Nová Role,50.27363333333333,12.780027777777779,0
74095,Dolní Stupno,49.81695055555556,13.575085,0
74105,Chrást u Plzně zastávka,49.800037777777774,13.496894166666666,0
74112,Vyšné,48.796346388888885,14.86638,0
74115,Sedlecko,49.806354999999996,13.527553055555556,0
74122,Nové Hrady,48.822788055555556,14.809579444444445,0
74125,Všenice,49.8160375,13.564174722222223,0
74132,Petříkov,48.84563388888889,14.755990555555556,0
74135,Stupno,49.82613555555556,13.577013611111111,0
74142,Jílovice,48.8771,14.70529111111111,0
74145,Bezděkov u Radnic,49.82765777777778,13.595405277777779,0
74152,Hluboká u Borovan,48.895988333333335,14.675449444444444,0
74155,Radnice,49.85804138888889,13.596654722222222,0
74162,Borovany,48.891334444444446,14.642615555555555,0
74165,Stará Role,50.24581083333334,12.83578138888889,0
74172,Trocnov,48.902651666666664,14.587412222222223,0
74175,Střapole,49.80630333333333,13.543406388888888,0
74182,Nová Ves u Českých Budějovic,48.921128055555556,14.529093611111112,0
74185,Nová Role zastávka,50.29114694444444,12.755951944444444,0
74192,Nové Hodějovice,48.95221527777778,14.498556944444443,0
74195,Nejdek-Suchá,50.310941944444444,12.750094722222222,0
74202,Hříběcí,49.320688611111116,15.309295833333334,0
74205,Nejdek,50.31907666666667,12.727551666666667,0
74212,Nová Buková,49.34133527777778,15.286575833333334,0
74215,Nejdek zastávka,50.329078611111115,12.722311388888889,0
74222,Dobrá Voda u Pelhřimova,49.356746111111114,15.274388611111112,0
74225,Vysoká Pec,50.34164611111111,12.71237361111111,0
74232,Zajíčkov,49.37964777777778,15.259399444444444,0
74233,Dýšina,49.77896194444445,13.503068055555556,0
74235,Nové Hamry,50.35709361111111,12.71941111111111,0
74242,Rynárec,49.394555277777776,15.231665833333333,0
74245,Nejdek-Tisová,50.34128888888889,12.730283333333334,0
74252,Pelhřimov,49.419668055555555,15.222460833333333,0
74255,Nejdek-Sejfy,50.34916777777778,12.751325555555555,0
74262,Vlásenice,49.415771388888885,15.158253611111112,0
74265,Nejdek-Oldřichov,50.348145,12.769645555555556,0
74272,Nová Cerekev,49.42558388888889,15.117766666666666,0
74275,Pernink,50.36559805555556,12.773346666666667,0
74282,Leskovice,49.4297675,15.079201944444444,0
74285,Horní Blatná,50.38805388888889,12.76663361111111,0
74292,Pacov,49.459876944444446,15.017195833333334,0
74295,Potůčky zastávka,50.41909972222222,12.734195833333333,0
74302,Šimpach,49.43801083333333,14.97494388888889,0
74305,Potůčky,50.430215,12.738893333333332,0
74312,Pořín,49.42164361111111,14.8665225,0
74315,Krásný Jez,50.11605027777778,12.848147222222222,0
74316,Krásný Jez zastávka,50.12408527777778,12.849076666666667,0
74322,Chýnov,49.4155675,14.810689444444446,0
74325,Horní Slavkov-Kounice,50.1367475,12.81441638888889,0
74332,Dobronice u Chýnova,49.42012555555555,14.769798055555556,0
74342,Smyslov,49.418481388888885,14.739941944444444,0
74352,Radostice u Trocnova,48.90091777777778,14.611860833333333,0
74362,Jindřichův Hradec,49.15512888888889,15.004195555555556,0
74375,Loučky,50.20413444444445,12.751839444444444,0
74395,Nové Sedlo u Lokte,50.21422333333334,12.745637777777777,0
74405,Mariánské Lázně,49.95684805555556,12.6946075,0
74415,Mariánské Lázně město,49.95900527777778,12.703930833333333,0
74425,Vlkovice,49.94678611111111,12.742649444444444,0
74435,Milhostov u Mariánských Lázní,49.960325000000005,12.761626111111111,0
74445,Ovesné Kladruby,49.95661861111111,12.785065,0
74455,Mrázov,49.96384611111112,12.832504444444444,0
74465,Teplá,49.97559972222222,12.860020555555556,0
74475,Hoštěc,49.99315611111111,12.84468388888889,0
74485,Poutnov,50.018250277777774,12.822011944444444,0
74495,Louka u Mariánských Lázní,50.03868194444444,12.827319166666667,0
74505,Bečov nad Teplou,50.08303055555556,12.831167777777777,0
74515,Vodná,50.10329027777778,12.845435555555555,0
74525,Loket,50.18983944444444,12.752756944444444,0
74531,Dynín zastávka,49.14095638888889,14.622550555555556,0
74536,Teplička,50.149096666666665,12.852757222222222,0
74545,Kfely,50.16021694444444,12.838808055555557,0
74555,Cihelny,50.17912166666667,12.841496944444446,0
74565,Karlovy Vary-Březová,50.201952777777784,12.83756,0
74571,Karlovy Vary-Aréna,50.22233888888889,12.845160555555557,0
74575,Doubí u Karlových Varů,50.21163972222222,12.831722777777777,0
74585,Karlovy Vary dolní nádraží,50.23020416666667,12.862864722222222,0
74595,Nýřany,49.71494944444445,13.209543055555555,0
74605,Kamenný Újezd u Nýřan,49.717131944444446,13.192477777777778,0
74615,Blatnice u Nýřan,49.723058055555555,13.159669166666667,0
74625,Rochlov,49.72414611111111,13.141531944444443,0
74632,Obrataň,49.42898527777778,14.953720555555554,0
74635,Přehýšov,49.72360861111111,13.125521666666668,0
74643,Třebčice,49.48179944444445,13.614441388888888,0
74645,Heřmanova Huť,49.71058111111111,13.087764722222223,0
74653,Želvice,49.46904333333333,13.630526111111111,0
74655,Plzeň-Jižní Předměstí,49.74011361111111,13.367520277777778,0
74656,Plzeň-Zadní Skvrňany,49.74740444444445,13.32651361111111,0
74662,Písek jih,49.302146944444445,14.151728055555555,0
74663,Kotouň,49.46292555555556,13.666008611111112,0
74665,Plzeň-Skvrňany,49.74142444444445,13.345616388888889,0
74673,Životice,49.463415833333336,13.69139611111111,0
74675,Vejprnice,49.72981388888889,13.284626944444444,0
74683,Kasejovice,49.457008055555555,13.744105833333332,0
74685,Tlučná,49.72439138888889,13.241776666666667,0
74692,Hradiště u Blatné,49.44976583333333,13.773227777777779,0
74695,Zbůch,49.680524444444444,13.215721666666665,0
74702,Lnáře,49.4437175,13.790108055555555,0
74705,Chotěšov u Stoda,49.6570825,13.19828888888889,0
74712,Tchořovice,49.438788055555555,13.809939166666668,0
74715,Stod,49.63971472222222,13.155190833333334,0
74722,Blatná,49.43100027777778,13.872683333333335,0
74725,Hradec u Stoda,49.636203611111114,13.122835,0
74735,Holýšov,49.5972675,13.101305833333333,0
74742,Rožmberk nad Vltavou,48.62641722222222,14.363206388888889,0
74745,Dolní Kamenice,49.58039388888889,13.093151666666667,0
74752,Herbertov,48.619245,14.349518333333334,0
74755,Osvračín,49.51766111111111,13.042943888888889,0
74762,Těchoraz,48.619414722222224,14.3214975,0
74765,Blížejov,49.50158833333333,12.995065833333333,0
74772,Vyšší Brod klášter,48.62345972222222,14.309183333333333,0
74775,Milavče,49.46656388888889,12.98479472222222,0
74782,Čertova Stěna,48.64422611111111,14.286315,0
74785,Stříbro,49.741122222222224,13.000606666666666,0
74792,Loučovice,48.62067666666667,14.256741388888889,0
74795,Babylon,49.399215,12.868544166666668,0
74802,Loučovice zastávka,48.624696666666665,14.245408333333332,0
74805,Česká Kubice,49.37427666666667,12.865068333333333,0
74812,Lipno nad Vltavou,48.63382861111111,14.243284166666665,0
74815,Plzeň-Křimice,49.75159722222222,13.303593611111111,0
74822,Slavonice,48.99382111111111,15.349134166666667,0
74825,Vochov,49.76005583333333,13.275926111111112,0
74832,Mutišov,49.015615277777776,15.378088333333334,0
74835,Kozolupy,49.76226361111111,13.244578055555555,0
74842,Dolní Bolíkov,49.03430111111111,15.374863333333334,0
74845,Břasy,49.842601944444446,13.587442222222222,0
74852,Peč,49.044604444444445,15.398020833333334,0
74855,Pňovany zastávka,49.7860106,13.1299738,0
74862,Urbaneč,49.053577499999996,15.419053055555555,0
74865,Sulislav,49.762659166666666,13.062631111111111,0
74872,Dačice město,49.078539722222224,15.43980111111111,0
74875,Vranov u Stříbra,49.7621625,13.040951944444444,0
74882,Dačice,49.086034444444444,15.439268055555555,0
74892,Malý Pěčín,49.10803277777778,15.447576944444444,0
74895,Milíkov,49.74330777777778,12.940423888888889,0
74900,Telč-Staré Město,49.174456111111105,15.462369166666665,0
74902,Velký Pěčín,49.120423333333335,15.447486388888889,0
74905,Svojšín,49.76307194444444,12.911100000000001,0
74910,Slaviboř,49.131105,15.462439722222221,0
74915,Ošelín,49.786,12.846317777777779,0
74920,Radkov,49.14615638888889,15.47184888888889,0
74924,Tochovice zastávka,49.5980925,13.994465,0
74925,Pavlovice,49.821465833333335,12.780455555555557,0
74930,Telč,49.18257222222222,15.464486666666666,0
74935,Brod nad Tichou,49.829078055555556,12.741365555555555,0
74940,Mysliboř,49.20794777777778,15.486390277777778,0
74945,Planá u Mariánských Lázní,49.86172972222222,12.730129166666666,0
74950,Sedlejov,49.224734444444444,15.495806944444444,0
74953,Příbram sídliště,49.673896666666664,14.000956111111112,0
74955,Chodová Planá,49.90269722222222,12.725176666666666,0
74960,Hodice,49.271698888888885,15.484136944444444,0
74965,Valy u Mariánských Lázní,49.97718277777778,12.6647225,0
74970,Třešť město,49.28720638888889,15.482050277777779,0
74975,Lázně Kynžvart,49.99332888888889,12.614074166666667,0
74980,Třešť,49.29812833333333,15.476438333333334,0
74985,Dolní Žandov,50.01175888888889,12.539968055555555,0
74990,Jezdovice,49.320797777777784,15.481336111111112,0
74995,Salajna,50.02728,12.5032125,0
75000,Salavice,49.330137500000006,15.48451611111111,0
75005,Lipová u Chebu,50.029198055555554,12.457752222222222,0
75012,Radošovice,49.232263333333336,13.9019225,0
75015,Stebnice,50.04951277777778,12.441405555555555,0
75022,Přední Zborovice,49.21827833333334,13.894039166666666,0
75025,Cheb-Všeboř,50.05076861111111,12.409918888888889,0
75033,Strunkovice nad Volyňkou obec,49.2100475,13.887408333333333,0
75035,Cheb,50.07376777777778,12.380777777777778,0
75036,Cheb-Skalka,50.074046111111116,12.34816638888889,0
75037,Pomezí nad Ohří,50.086173055555555,12.271871111111112,0
75042,Hoštice u Volyně,49.1873825,13.89315611111111,0
75045,Plzeň-Bílá Hora,49.768253333333334,13.400311111111112,0
75046,Plzeň-Bolevec,49.786454166666665,13.385407777777777,0
75052,Volyně,49.170253055555555,13.892920277777778,0
75055,Plzeň-Orlík,49.80390611111111,13.39618361111111,0
75062,Nišovice,49.15034166666666,13.90598,0
75065,Třemošná u Plzně,49.81914277777778,13.394589722222221,0
75072,Malenice nad Volyňkou,49.123783333333336,13.883180000000001,0
75075,Horní Bříza zastávka,49.838143055555555,13.358984166666666,0
75082,Lčovice,49.10892833333333,13.865579722222222,0
75085,Horní Bříza,49.85091666666667,13.379647777777778,0
75092,Čkyně,49.111154722222224,13.82910611111111,0
75095,Obora u Kaznějova,49.87153527777778,13.402653611111111,0
75102,Bohumilice v Čechách zastávka,49.09764361111112,13.814071666666667,0
75105,Kaznějov,49.893768333333334,13.375009722222222,0
75112,Bohumilice v Čechách,49.092714722222226,13.801225833333334,0
75115,Plasy,49.93089805555555,13.37964111111111,0
75122,Vimperk,49.055543888888884,13.790795833333334,0
75125,Horní Hradiště,49.94727194444444,13.36299611111111,0
75132,Vimperk zastávka,49.048719444444444,13.763906111111112,0
75135,Mladotice zastávka,49.97186444444445,13.34629138888889,0
75142,Lipka,49.020156388888886,13.735621388888887,0
75145,Mladotice,49.98671,13.364013888888888,0
75152,Lenora zastávka,48.92323916666666,13.803304444444445,0
75155,Potvorov,50.02399888888889,13.37490888888889,0
75162,Kubova Huť,48.98298305555556,13.7747525,0
75165,Žihle,50.04672472222222,13.362877777777777,0
75172,Horní Vltavice,48.96259444444445,13.774618055555557,0
75182,Zátoň,48.950722500000005,13.802726111111111,0
75186,Blatno u Jesenice,50.10001472222223,13.390018055555554,0
75192,Zátoň-Boubín,48.95155972222223,13.822484722222223,0
75202,Lenora,48.92838666666666,13.796929166666667,0
75206,Petrohrad,50.13525555555555,13.434022500000001,0
75212,Soumarský Most,48.90797944444444,13.829128055555556,0
75216,Kryry,50.168861666666665,13.422875277777777,0
75222,Horní Dvořiště,48.601820000000004,14.421906111111111,0
75226,Vroutek,50.183968611111105,13.3740175,0
75232,Rybník,48.649455833333334,14.43182611111111,0
75236,Podbořany,50.22356305555556,13.404553333333334,0
75242,Pšenice,48.68112,14.444182777777778,0
75246,Kaštice,50.261720833333335,13.41797472222222,0
75252,Bujanov,48.70218333333334,14.432256944444443,0
75262,Omlenice,48.7252225,14.447555277777777,0
75272,Kaplice,48.77513861111111,14.468693333333334,0
75282,Výheň,48.788615,14.472942222222223,0
75292,Velešín,48.81999694444445,14.436373055555556,0
75295,Plzeň zastávka,49.73679277777778,13.374870555555557,0
75302,Velešín město,48.836443333333335,14.453204722222221,0
75305,Plzeň-Doudlevce,49.72173194444445,13.383114722222222,0
75312,Holkov,48.85156583333333,14.447966666666668,0
75322,Chlumec u Českých Budějovic,48.87016472222222,14.41958,0
75325,Dobřany,49.656502777777774,13.303381944444444,0
75332,Kamenný Újezd u Českých Budějovic,48.891169444444444,14.448995833333333,0
75335,Chlumčany u Dobřan,49.62292194444444,13.292071666666667,0
75345,Přeštice-Zastávka,49.60077777777778,13.299091388888888,0
75352,Včelná,48.924434444444444,14.449564444444444,0
75355,Přeštice,49.57518277777778,13.322532222222222,0
75362,České Budějovice jižní zastávka,48.95930361111112,14.47559388888889,0
75365,Lužany,49.54837027777778,13.314575000000001,0
75372,Horky u Tábora,49.395465277777774,14.642445833333333,0
75375,Borovy,49.5267575,13.299355,0
75382,Slapy,49.38495777777778,14.629079444444445,0
75385,Červené Poříčí,49.49575194444444,13.3049025,0
75392,Libějice,49.381594722222225,14.619663333333333,0
75395,Švihov u Klatov,49.47374916666667,13.29077,0
75402,Malšice,49.35975638888889,14.585600555555557,0
75405,Dehtín,49.450158611111114,13.286661666666667,0
75412,Čenkov u Malšic,49.349158888888894,14.579956666666666,0
75415,Točník,49.42943472222222,13.309333333333335,0
75422,Třebelice,49.333845555555556,14.572726944444444,0
75425,Pňovany,49.78865416666667,13.09049,0
75432,Všechlapy,49.324694722222226,14.566450833333334,0
75435,Blahousty,49.79769888888889,13.073716666666666,0
75442,Bechyňská Smoleč,49.31007444444444,14.553914444444445,0
75445,Trpísty,49.815463611111106,13.046975833333333,0
75452,Sudoměřice u Bechyně,49.29490944444444,14.541282777777777,0
75455,Lomnička,49.82207166666667,13.016155277777777,0
75462,Bežerovice,49.292445,14.510810277777777,0
75465,Cebiv,49.83128916666667,12.981299444444444,0
75472,Bechyně zastávka,49.29334083333333,14.482802777777778,0
75475,Strahov,49.85151194444445,12.979079444444444,0
75482,Bechyně,49.29996277777778,14.477681944444445,0
75485,Břetislav,49.8731075,12.967624444444445,0
75492,Nasavrky,49.45042138888889,14.639479999999999,0
75495,Kokašice,49.88243666666667,12.964295833333333,0
75502,Balkova Lhota,49.445950277777776,14.598225277777779,0
75505,Konstantinovy Lázně,49.88487305555555,12.975679166666668,0
75512,Meziříčí,49.447826666666664,14.580535833333332,0
75515,Bezdružice,49.90317472222222,12.969447777777777,0
75522,Padařov,49.44775027777777,14.535074166666666,0
75525,Poběžovice,49.51347388888889,12.811604722222222,0
75532,Božejovice,49.44765527777778,14.494704166666667,0
75535,Mutěnín,49.544936111111106,12.773316111111113,0
75542,Sepekov,49.440669166666666,14.420098888888889,0
75545,Hostouň,49.56049083333333,12.77796138888889,0
75552,Milevsko,49.44149722222222,14.377689444444444,0
75555,Svržno,49.57422777777778,12.769683055555557,0
75562,Líšnice,49.421236666666665,14.37121638888889,0
75565,Újezd Svatého Kříže,49.57794861111111,12.749155833333333,0
75572,Branice,49.402743055555554,14.3453725,0
75575,Bělá nad Radbuzou,49.588661388888895,12.720742777777778,0
75582,Stehlovice,49.39281277777778,14.324993611111111,0
75585,Bělá nad Radbuzou zastávka,49.59211444444445,12.708823333333333,0
75592,Jetětice,49.3819875,14.290958055555555,0
75595,Třemešné pod Přimdou,49.625480833333334,12.70139361111111,0
75602,Červená nad Vltavou,49.37193277777778,14.273039166666667,0
75605,Dubec,49.629156111111115,12.721953611111111,0
75612,Vlastec,49.36916277777778,14.223253611111112,0
75615,Borek u Tachova,49.63524694444445,12.768740000000001,0
75622,Záhoří,49.343202222222224,14.203445555555556,0
75625,Stráž u Tachova,49.66538083333333,12.772707777777779,0
75632,Vrcovice,49.340224444444445,14.17098111111111,0
75635,Doly,49.73537861111111,12.739215833333333,0
75642,Písek město,49.31374333333333,14.161560833333334,0
75645,Staré Sedliště,49.73974777777778,12.7012775,0
75652,Písek,49.29635916666666,14.143109166666667,0
75653,Písek-Dobešice,49.32705083333334,14.110458888888889,0
75655,Pernolec,49.770876666666666,12.679500277777777,0
75662,Putim,49.26354111111111,14.1311775,0
75665,Malý Rapotín,49.78720722222222,12.65802,0
75672,Doňov,49.2082525,14.799754722222222,0
75675,Tachov zastávka,49.79403305555555,12.64252861111111,0
75682,Kardašova Řečice,49.18357083333333,14.860462222222221,0
75685,Tachov,49.802208888888885,12.638858611111111,0
75692,Mnich,49.16925444444444,14.8828,0
75702,Děbolín,49.16442388888889,14.951268333333333,0
75705,Lom u Tachova,49.81749611111111,12.685476944444444,0
75762,Počátky-Žirovnice,49.23699361111111,15.212418333333332,0
75775,Bochov,50.15475388888889,13.045366111111111,0
75802,Horní Cerekev,49.31134861111111,15.3247075,0
75806,Kotvina,50.3669425,13.155068611111112,0
75810,Švábov,49.313892777777774,15.355878333333333,0
75816,Perštejn,50.36758861111111,13.112836666666666,0
75820,Batelov,49.317506388888894,15.398129444444445,0
75825,Boč,50.359426944444444,13.082595,0
75830,Dolní Cerekev,49.3430125,15.46185111111111,0
75835,Stráž nad Ohří,50.34046138888889,13.059173333333334,0
75840,Kostelec u Jihlavy,49.356996111111116,15.481502222222222,0
75841,Kostelec u Jihlavy masna,49.35525222222223,15.488904999999999,0
75845,Vojkovice nad Ohří,50.30750777777777,13.016184444444445,0
75850,Dvorce,49.384251666666664,15.498496666666666,0
75855,Ostrov nad Ohří,50.30168916666666,12.95771361111111,0
75860,Rantířov,49.406636388888884,15.5130175,0
75862,Horní Planá zastávka,48.7522625,14.044,0
75865,Hájek,50.28008833333333,12.9378475,0
75872,Pěkná,48.84889027777778,13.910123055555555,0
75875,Karlovy Vary,50.23545166666667,12.866756666666667,0
75882,Ovesná,48.806527777777774,13.93894388888889,0
75885,Karlovy Vary-Dvory,50.22897944444445,12.832501388888888,0
75892,Nová Pec,48.78990611111111,13.953136666666666,0
75895,Královské Poříčí,50.18927333333333,12.675048333333333,0
75902,Pernek-Hory,48.78354861111111,13.986498888888889,0
75905,Citice,50.16453388888889,12.61565861111111,0
75912,Horní Planá,48.764988055555555,14.026344722222223,0
75915,Hlavno,50.15400138888889,12.607710833333332,0
75922,Černá v Pošumaví,48.742828611111115,14.086768333333334,0
75925,Dasnice,50.139400277777774,12.567186111111111,0
75932,Žlábek,48.76385222222222,14.100942222222223,0
75935,Kynšperk nad Ohří,50.12574583333333,12.519509444444445,0
75942,Hodňov,48.778905,14.104364166666667,0
75945,Nebanice,50.11744638888889,12.47857,0
75952,Polečnice,48.79945333333333,14.12035111111111,0
75955,Tršnice,50.11414361111111,12.399870277777778,0
75962,Polná na Šumavě,48.79861694444444,14.147696944444444,0
75964,Chlum u Rakovníka,50.076054444444445,13.777401666666668,0
75972,Hořice na Šumavě,48.771456944444445,14.18301222222222,0
75974,Lašovice,50.065504999999995,13.800008611111112,0
75982,Mezipotočí,48.788803888888886,14.241158888888888,0
75984,Pustověty,50.05500055555555,13.816906111111111,0
75992,Kájov,48.812953888888885,14.26516638888889,0
75994,Městečko u Křivoklátu,50.050219166666665,13.857140833333332,0
76002,Český Krumlov,48.82237333333334,14.3170625,0
76004,Křivoklát,50.03829611111111,13.868710277777778,0
76012,Přísečná,48.828649444444444,14.34075527777778,0
76014,Roztoky u Křivoklátu,50.02352361111111,13.873895000000001,0
76022,Zlatá Koruna,48.85070944444445,14.351896944444444,0
76024,Újezd nad Zbečnem,50.04578111111111,13.892577222222222,0
76032,Plešovice,48.86399333333333,14.350890833333333,0
76034,Zbečno,50.035693333333334,13.918184166666666,0
76035,Plešnice,49.777079444444446,13.165574722222223,0
76042,Třísov,48.88334361111111,14.3486325,0
76044,Račice nad Berounkou,50.02488722222222,13.923150555555555,0
76052,Holubov,48.89317694444444,14.324610277777778,0
76054,Žloukovice,50.01592027777778,13.9560075,0
76062,Křemže,48.90463222222222,14.331081666666666,0
76064,Nižbor,50.00335388888889,13.998361666666666,0
76072,Vrábče,48.91746666666666,14.357387777777777,0
76073,Hradce,48.92659111111111,14.365668888888889,0
76074,Hýskov,49.98891361111111,14.044771944444445,0
76082,Černý Dub,48.92657416666666,14.40566638888889,0
76084,Beroun-Závodí,49.96719277777778,14.083564722222222,0
76092,Boršov nad Vltavou,48.92675611111111,14.443559166666667,0
76094,Rakovník,50.09900666666667,13.736037499999998,0
76102,Strakonice,49.25504138888889,13.915583611111112,0
76104,Senomaty,50.09555277777778,13.646679444444445,0
76114,Šanov,50.091909722222226,13.629691944444446,0
76122,Pracejovice,49.258181111111114,13.84909,0
76124,Pšovlky,50.10433666666667,13.598088333333333,0
76132,Katovice,49.269196666666666,13.823606388888889,0
76134,Švihov u Jesenice,50.10725138888889,13.5670175,0
76142,Dolní Poříčí,49.28810694444444,13.800878611111111,0
76144,Oráčov,50.10721222222222,13.544555555555556,0
76152,Střelské Hoštice,49.305122777777775,13.779056666666667,0
76154,Kosobody,50.10733888888889,13.518762500000001,0
76164,Jesenice,50.093117500000005,13.471790555555556,0
76174,Krty,50.090319722222226,13.4341375,0
76184,Lubná,50.07855222222223,13.696011666666667,0
76194,Příčina,50.07136416666667,13.677847777777778,0
76204,Zavidov,50.05636027777778,13.629238611111111,0
76214,Všesulov,50.04159333333333,13.602534444444444,0
76224,Čistá,50.0330575,13.568940833333333,0
76234,Strachovice,50.01437083333333,13.52722138888889,0
76245,Kožlany,49.9936625,13.519060277777779,0
76254,Rakovník západ,50.101686944444445,13.714036666666665,0
76255,Kralovice u Rakovníka,49.988794166666665,13.489666666666666,0
76275,Rokycany předměstí,49.732285000000005,13.603551388888889,0
76285,Kamenný Újezd u Rokycan,49.72206388888889,13.618163333333333,0
76295,Nová Huť,49.71714138888889,13.6378075,0
76305,Hrádek u Rokycan,49.71346972222223,13.653623611111112,0
76315,Mirošov,49.700026666666666,13.6661175,0
76325,Mirošov město,49.68983444444444,13.663000833333333,0
76335,Příkosice zastávka,49.67037305555555,13.6657075,0
76345,Příkosice,49.66298027777778,13.6508325,0
76355,Mešno,49.65490027777778,13.623031111111112,0
76365,Lipnice,49.64489611111111,13.609551111111111,0
76375,Kornatice,49.65545611111111,13.588627777777779,0
76385,Kornatice rybník,49.66408833333333,13.568303333333333,0
76395,Šťáhlavice,49.65746277777777,13.537024444444445,0
76405,Nezvěstice,49.642475555555556,13.516606388888889,0
76414,Zadní Poříčí,49.5852925,13.940233055555556,0
76424,Oslí,49.59675805555556,13.926475833333333,0
76434,Skuhrov pod Třemšínem,49.59757388888889,13.904921666666667,0
76444,Rožmitál pod Třemšínem,49.60201416666667,13.882191944444445,0
76455,Sokolov,50.18608416666666,12.644588055555555,0
76465,Svatava,50.190149999999996,12.624817222222223,0
76475,Svatava zastávka,50.19743666666666,12.607094166666666,0
76485,Luh nad Svatavou,50.217847222222225,12.587572777777778,0
76495,Hřebeny,50.221804722222224,12.5808625,0
76505,Oloví,50.25474138888889,12.558171666666667,0
76515,Rotava,50.287056666666665,12.535434166666667,0
76525,Kraslice předměstí,50.31164555555555,12.518667222222224,0
76534,Kraslice-Pod vlekem,50.33948,12.49740361111111,0
76535,Kraslice,50.33074194444445,12.502363055555556,0
76555,Holostřevy,49.71798388888889,12.862700277777778,0
76565,Skviřín,49.71317055555556,12.813637777777778,0
76575,Bor,49.717529444444445,12.778525833333335,0
76585,Staňkov,49.54764888888889,13.071885833333333,0
76595,Křenovy,49.53532638888889,13.025093333333334,0
76615,Semošice,49.53422555555555,12.983811944444444,0
76625,Horšovský Týn,49.524362777777775,12.93764,0
76635,Mašovice,49.51835972222222,12.89782111111111,0
76645,Meclov,49.51011972222222,12.875245833333334,0
76655,Ohnišťovice,49.51327194444445,12.849955833333334,0
76665,Zámělíč,49.5162225,12.832851111111111,0
76675,Třebeň,50.131565,12.404024444444445,0
76685,Nový Drahov,50.14695361111111,12.399366944444443,0
76695,Vonšov,50.155993055555555,12.379601666666668,0
76705,Skalná,50.16615916666667,12.368682777777778,0
76715,Velký Luh,50.19674444444444,12.372534166666668,0
76725,Nový Kostel,50.220307777777776,12.420984444444445,0
76735,Dolní Luby,50.23943833333333,12.412639166666667,0
76745,Luby u Chebu,50.2533925,12.400967777777778,0
76754,Běleč,49.909524999999995,14.178408333333334,0
76755,Bor zastávka,49.6880525,12.781236666666668,0
76764,Liteň,49.90340805555555,14.155308333333334,0
76774,Skuhrov pod Brdy,49.888576111111114,14.147683055555555,0
76784,Nesvačily,49.87506111111111,14.12886861111111,0
76794,Všeradice,49.867515833333336,14.107369166666667,0
76804,Vižina,49.854820000000004,14.100243888888889,0
76814,Osov,49.83732555555556,14.084255,0
76824,Hostomice pod Brdy,49.831409722222226,14.047231666666667,0
76834,Radouš,49.83825055555556,14.017509444444446,0
76844,Neumětely,49.85004444444444,14.011898333333333,0
76854,Lochovice,49.846406388888894,13.974275,0
76864,Libomyšl,49.875547222222224,13.991847222222221,0
76874,Rejkovice,49.80902916666666,13.970544444444444,0
76884,Jince,49.78223083333333,13.987281666666666,0
76894,Bratkovice,49.738552222222225,14.003024166666666,0
76904,Příbram,49.68893222222222,14.0032675,0
76905,Starec,49.384233611111114,13.010579166666666,0
76914,Milín,49.63239166666667,14.02198138888889,0
76924,Tochovice,49.588681666666666,13.98766861111111,0
76934,Březnice,49.55835,13.964038888888888,0
76935,Dobřany zastávka,49.68163805555555,13.324078333333333,0
76944,Ostrov u Tochovic,49.61495527777778,14.0086675,0
76945,Petrovice nad Úhlavou,49.320843611111115,13.179430833333333,0
76955,Nýrsko,49.29696111111111,13.153167777777778,0
76965,Dešenice,49.27737166666667,13.175109166666665,0
76975,Zelená Lhota,49.24921944444444,13.178962222222221,0
76985,Hamry-Hojsova Stráž,49.21132611111111,13.175142222222222,0
76995,Hojsova Stráž-Brčálník,49.19141583333333,13.222605833333333,0
77005,Špičák,49.161628888888885,13.222619444444444,0
77012,Domoradice,48.82790861111111,14.335136111111112,0
77015,Železná Ruda město,49.14328138888889,13.229375555555556,0
77025,Železná Ruda-Alžbětín,49.121920277777775,13.210179166666666,0
77035,Železná Ruda centrum,49.136335555555554,13.236904166666665,0
